,pod,cap,address,fiscal_code,company,description,province_shortname,locations,corr_lat,corr_lon,dis_from_istat_town
0,IT001E04333150,85044,FRZ GALDO SN,04850790967,Gruppo Coin S.p.A.,Lauria,PZ,,40.0486111111,15.8394444444,
1,IT001E25760390,24122,VIA PIZZO REDORTA,95038150165,S.P.I. C.G.I.L. ,Bergamo,BG,"(45.6928947, 9.7084879)",45.6928947,9.7084879,3.19149245225 km
2,IT001E04634023,24129,PIAZZA VECCHIA  7,02102300163,NEVIO in Liquidazione S.r.l.,Bergamo,BG,"(45.7041614, 9.6627007)",45.7041614,9.6627007,0.646968725347 km
3,IT001E25744814,24121,VIA PARTIGIANI,02210110165,Studio Comm. Berta Nembrini & Associati ,Bergamo,BG,"(45.697479, 9.6719513)",45.697479,9.6719513,0.391984027197 km
4,IT001E04303273,24122,DANIELE PICCININI 3,00216080168,ACQUA MINERALE STELLA ALPINA S.r.l.,Bergamo,BG,"(45.6950474, 9.666523)",45.6950474,9.666523,0.609836961419 km
5,IT001E04645383,24123,VIA CROCEFISSO  43,02184590160,BETTINELLI LUCIANO S.r.l.,Bergamo,BG,"(45.71714, 9.668669999999999)",45.71714,9.66867,1.87423976654 km
6,IT001E04483702,24121,VIA LOCATELLI 9,00204010243,Banca Popolare di Vicenza S.p.A.,Bergamo,BG,"(45.697858, 9.6695116)",45.697858,9.6695116,0.273285009426 km
7,IT001E16584623,24122,VIA G. MORONI  160,95147090161,Condominio Moroni 160 c/o Studio Gipponi ,Bergamo,BG,"(45.6902401, 9.6617452)",45.6902401,9.6617452,1.24669192985 km
8,IT001E00086466-LT,24126,Via Zanica  92,03420960167,LT LOGISTIK TRANSPORTGESELSCHAFT ,Bergamo,BG,"(45.6532046, 9.717799099999999)",45.6532046,9.7177991,6.47264158243 km
9,IT001E04634033,24122,P.LE REPUBBLICA  2,00870990165,Finsise S.r.l.,Bergamo,BG,"(45.6977298, 9.6678201)",45.6977298,9.6678201,0.295176017611 km
10,IT001E17691940,24123,VIA CARLO PESCARIA 25,95203650163,Condominio Residenza Simone ,Bergamo,BG,"(45.71516820000001, 9.6755645)",45.7151682,9.6755645,1.73472353457 km
11,IT001E16258569,24124,VIA MARIO BUTTARO 16,02157870169,Ambrosini Supermercati S.r.l.,Bergamo,BG,"(45.7128104, 9.685469900000001)",45.7128104,9.6854699,1.8993358814 km
12,IT001E04013938,24124,QUINTO ALPINI SN,02517580920,Wind Tre S.p.a.u.s.,Bergamo,BG,"(45.7069735, 9.694373)",45.7069735,9.694373,2.11954157007 km
13,IT001E04556686,24126,VIA SAN BERNARDINO  118,95153610167,Condominio Zanga ,Bergamo,BG,"(45.69522995500046, 9.669510065000452)",45.695229955,9.669510065,0.563124419494 km
14,IT001E00086392,24100,Via Camozzi  95,03147990273,Oviesse SpA,Bergamo,BG,"(45.69522995500046, 9.669510065000452)",45.695229955,9.669510065,0.563124419494 km
15,IT001E04406598,24123,VIA CROCEFISSO  3,80022330163,Tennis Club Bergamo Asd ,Bergamo,BG,"(45.69522995500046, 9.669510065000452)",45.695229955,9.669510065,0.563124419494 km
16,IT001E17130065,24126,VIA STEZZANO,03486370160,Innowatio S.p.A.,Bergamo,BG,"(45.70411845, 9.66618325222221)",45.70411845,9.66618325222,0.476045426062 km
17,IT001E04492919,24125,VIA GLENO  SNC,03173670161,Associazione Cittadella Dello Sport ,Bergamo,BG,"(46.0164101, 10.0747495125179)",45.7002777778,9.66888888889,47.2029296746 km
18,IT001E00120510,24126,VIA SAN BERNARDINO 102,03688760168,GCLUB Fitness & Therapy S.r.l.,Bergamo,BG,"(45.69522995500046, 9.669510065000452)",45.695229955,9.669510065,0.563124419494 km
19,IT001E25534859,24127,VIA ERCOLE MOZZI 18,01632590160,Immobiliare Fassi di Fassi e C. S.n.c.,Bergamo,BG,"(45.69522995500046, 9.669510065000452)",45.695229955,9.669510065,0.563124419494 km
20,IT001E15303866,24126,VIA DELLE CANOVINE  46,01072320169,Disc S.p.A.,Bergamo,BG,"(45.69522995500046, 9.669510065000452)",45.695229955,9.669510065,0.563124419494 km
21,IT001E00125637,24126,VIA CANOVINE  2/4,00228420162,SIAD MACCHINE IMPIANTI S.p.A.,Bergamo,BG,"(45.69522995500046, 9.669510065000452)",45.695229955,9.669510065,0.563124419494 km
22,IT001E17663740,24126,VIA STEZZANO  C/O PARCO SCIENTIFICO TECNOLOGICO KILOMETRO ROSSO  87,03486370160,Innowatio S.p.A.,Bergamo,BG,"(45.69522995500046, 9.669510065000452)",45.695229955,9.669510065,0.563124419494 km
23,IT001E16189547,24121,VIA ANGELO MAJ  SNC,03480700164,BERGAMO NEWS ,Bergamo,BG,"(45.6949128, 9.6810694)",45.6949128,9.6810694,1.12050826585 km
24,IT001E25554633,24121,VIA PIGNOLO  42,01229060163,C.D.L. Immobiliare ,Bergamo,BG,"(41.4608798860005, 12.61402997400046)",45.7002777778,9.66888888889,527.577127003 km
25,IT001E04078517,24124,VIA BURATTI,00209440163,Termigas Bergamo S.p.A.,Bergamo,BG,"(45.70411845, 9.66618325222221)",45.70411845,9.66618325222,0.476045426062 km
26,IT001E18226569,24126,VIA ZANCHI  22,03486370160,Innowatio S.p.A.,Bergamo,BG,"(45.69522995500046, 9.669510065000452)",45.695229955,9.669510065,0.563124419494 km
27,IT001E25747356,24122,LARGO MEDAGLIE D'ORO - AREA DONNA,08620050016,Coin SpA,Bergamo,BG,"(45.692905, 9.667105)",45.692905,9.667105,0.831145510511 km
28,IT001E25625651,24123,Via alla Zarda 1 - c/o Oratorio,95012400164,Parrocchia San Colombano ,Bergamo,BG,"(45.71761610000001, 9.6746112)",45.7176161,9.6746112,1.97792336189 km
29,IT001E15303893,24126,VIA DELLE CANOVINE  46,01072320169,Disc S.p.A.,Bergamo,BG,"(45.6799827, 9.6669891)",45.6799827,9.6669891,2.26055072345 km
30,IT001E25758508,24126,VIA CRESCENZI 65 I - c/o Oratorio,80040550164,PARROCCHIA SANTA TERESA DI LISIEUX ,Bergamo,BG,"(45.69522995500046, 9.669510065000452)",45.695229955,9.669510065,0.563124419494 km
31,IT001E04713084,24122,V VENTI SETTEMBRE 116,03147990273,Oviesse SpA,Bergamo,BG,"(45.6932341, 9.6644734)",45.6932341,9.6644734,0.855077599549 km
32,IT001E17123995,24126,VIA SAN GIOVANNI BOSCO  27,00773390166,PANIFICIO ARTIGIANALE F.LLI GAMBA S.n.c.,Bergamo,BG,"(45.6853405, 9.6745317)",45.6853405,9.6745317,1.71740297106 km
33,IT001E25763634,24129,VIA ARENA  3 c/o Don Gilberto Sessantini,80016630164,Fondaz.Congregazione Misericordia Maggiore di Bg ,Bergamo,BG,"(45.69522995500046, 9.669510065000452)",45.695229955,9.669510065,0.563124419494 km
34,IT001E25747969,24121,PASSAGGIO DON SEGHEZZI  3,01869040160,St. Ass. Dott. E. e F. Rampinelli ,Bergamo,BG,"(45.69522995500046, 9.669510065000452)",45.695229955,9.669510065,0.563124419494 km
35,IT001E15272558,24127,Via Promessi Sposi,02180520161,Comprabene S.p.A.,Bergamo,BG,"(45.6801254, 9.647175)",45.6801254,9.647175,2.80672338781 km
36,IT001E15198327,24129,VIA ARENA 9,80016630164,Fondaz.Congregazione Misericordia Maggiore di Bg ,Bergamo,BG,"(45.69522995500046, 9.669510065000452)",45.695229955,9.669510065,0.563124419494 km
37,IT001E25771345,24123,Via Cristoforo Baioni  53,03178370163,L'ANGOLO DEL PULITO S.N.C. DI GOTTI ANNA LISA ,Bergamo,BG,"(45.69522995500046, 9.669510065000452)",45.695229955,9.669510065,0.563124419494 km
38,IT001E00238475,24125,VIA GAVAZZENI,80025490162,ISTITUTO TECNICO INDUSTRIALE STATALE P. PALEOCAPA ,Bergamo,BG,"(45.5989139, 9.5537705)",45.7002777778,9.66888888889,14.4030708097 km
39,IT001E17865425,24126,VIA STEZZANO  87,02801580164,PARCO SCIENTIFICO TECNOLOGICO KILOMETRO ROSSO SPA ,Bergamo,BG,"(45.69522995500046, 9.669510065000452)",45.695229955,9.669510065,0.563124419494 km
40,IT001E00086434,24100,Via Corridoni 68,01894880168,Lombardini Discount S.p.A.,Bergamo,BG,"(45.69522995500046, 9.669510065000452)",45.695229955,9.669510065,0.563124419494 km
41,IT001E00120486,24123,VIA CRISTOFORO BAIONI 18,02741060160,LUMANIJE S.D. S.r.l.,Bergamo,BG,"(45.69522995500046, 9.669510065000452)",45.695229955,9.669510065,0.563124419494 km
42,IT001E04492918,24125,VIA GLENO  SNC,03173670161,Associazione Cittadella Dello Sport ,Bergamo,BG,"(45.69785, 9.70247)",45.69785,9.70247,2.62925301388 km
43,IT001E25758509,24126,VIA CRESCENZI 65 I - c/o Canonica,80040550164,PARROCCHIA SANTA TERESA DI LISIEUX ,Bergamo,BG,"(45.69522995500046, 9.669510065000452)",45.695229955,9.669510065,0.563124419494 km
44,IT001E00086399,24122,Via S. Bernardino,02180520161,Comprabene S.p.A.,Bergamo,BG,"(45.682728, 9.662160600000002)",45.682728,9.6621606,2.01975441266 km
45,IT001E17165899,24126,VIA STEZZANO  87,02801580164,PARCO SCIENTIFICO TECNOLOGICO KILOMETRO ROSSO SPA ,Bergamo,BG,"(45.6671442, 9.6597973)",45.6671442,9.6597973,3.75012666025 km
46,IT001E25749929,24121,VIA BARTOLOMEO BONO  3B,01894880168,Lombardini Discount S.p.A.,Bergamo,BG,"(45.6924153, 9.677687899999999)",45.6924153,9.6776879,1.11055190085 km
47,IT001E16458790,24126,V LUIGI MAGRINI SN,01255720169,Esselunga S.p.A.,Bergamo,BG,"(45.6871973, 9.6662476)",45.6871973,9.6662476,1.46831805042 km
48,IT001E25753807,24123,VIA SAN COLOMBANO 20 - c/o Centro Anziani,95012400164,Parrocchia San Colombano ,Bergamo,BG,"(45.69522995500046, 9.669510065000452)",45.695229955,9.669510065,0.563124419494 km
49,IT001E17681152,24126,VIA COLOGNOLA AI COLLI   6,09736360158,Residenze Anni Azzurri S.r.l.,Bergamo,BG,"(45.6773522, 9.6622789)",45.6773522,9.6622789,2.59957127921 km
50,IT001E25762105,24121,PIAZZA LORENZO MASCHERONI - BERGAMO,80016630164,Fondaz.Congregazione Misericordia Maggiore di Bg ,Bergamo,BG,"(45.7053692, 9.6600301)",45.7053692,9.6600301,0.89229246417 km
51,IT001E00086466-ARV,24126,Via Zanica  92,03147950160,ARVATO SERVICE ITALIA S.r.l.,Bergamo,BG,"(45.6532046, 9.717799099999999)",45.6532046,9.7177991,6.47264158243 km
52,IT001E00238126,24125,VIA MONTE GLENO  2           CIG: 4395859998,03240540165,Azienda Bergamasca Formazione S.p.A.,Bergamo,BG,,45.7002777778,9.66888888889,
53,IT001E04634030,24122,P.LE REPUBBLICA  2,00870990165,Finsise S.r.l.,Bergamo,BG,"(45.6977298, 9.6678201)",45.6977298,9.6678201,0.295176017611 km
54,IT001E04483714,24121,VIA MASONE 1,00204010243,Banca Popolare di Vicenza S.p.A.,Bergamo,BG,"(45.6980167, 9.6694894)",45.6980167,9.6694894,0.255623354135 km
55,IT001E16476863,24125,VIA ERNESTO PIROVANO,02716540162,Onoranze Funebri Ricciardi e Corna S.r.l.,Bergamo,BG,"(45.69614079999999, 9.6894228)",45.6961408,9.6894228,1.66403791957 km
56,IT001E25757510,24126,VIA CRESCENZI 65 I - c/o Chiesa,80040550164,PARROCCHIA SANTA TERESA DI LISIEUX ,Bergamo,BG,"(45.6984738, 9.675882699999999)",45.6984738,9.6758827,0.580421582459 km
57,IT001E00249937,24128,GIUSEPPE MAZZINI SNC,00455110163,CLINICA CASTELLI S.p.A.,Bergamo,BG,"(45.6957597, 9.655157599999999)",45.6957597,9.6551576,1.1814718295 km
58,IT001E17889874,24125,VIA GLENO  SNC,01384571004,F.I.D.A.L. ,Bergamo,BG,"(45.69785, 9.70247)",45.69785,9.70247,2.62925301388 km
59,IT001E04634031,24122,P.LE REPUBBLICA  2,00870990165,Finsise S.r.l.,Bergamo,BG,"(45.6977298, 9.6678201)",45.6977298,9.6678201,0.295176017611 km
60,IT001E04406596,24123,VIA RUGGERI  11,80022330163,Tennis Club Bergamo Asd ,Bergamo,BG,"(45.7139025, 9.6673068)",45.7139025,9.6673068,1.51933105111 km
61,IT001E17268402,24122,VIA SAN BERNARDINO 78C,00204010243,Banca Popolare di Vicenza S.p.A.,Bergamo,BG,"(45.6840742, 9.6624798)",45.6840742,9.6624798,1.86886122197 km
62,IT001E17383597,24126,VIA STEZZANO  87,95180850166,Condominio Centro delle Professioni ,Bergamo,BG,"(45.6671442, 9.6597973)",45.6671442,9.6597973,3.75012666025 km
63,IT001E17349848,24121,Via Torquato Tasso  26,03147990273,Oviesse SpA,Bergamo,BG,"(45.6971295, 9.674117599999999)",45.6971295,9.6741176,0.536912198445 km
64,IT001E00086466-DIST,24126,Via Zanica  92,01562270163,DISTRIBERG S.r.l.,Bergamo,BG,"(45.6532046, 9.717799099999999)",45.6532046,9.7177991,6.47264158243 km
65,IT001E25781192,24121,VIA MALJ TABAJANI - BERGAMO,80016630164,Fondaz.Congregazione Misericordia Maggiore di Bg ,Bergamo,BG,"(45.695297, 9.678384)",45.695297,9.678384,0.92376811799 km
66,IT001E14718632,24127,VIA DE AMICIS  1,95106250160,CONDOMINIO BOX VIA PIRANDELLO ,Bergamo,BG,"(45.690532, 9.607889)",45.690532,9.607889,4.87302769534 km
67,IT001E16258570,24124,VIA MARIO BUTTARO  16,03930380161,LDD S.P.A.,Bergamo,BG,"(45.7128104, 9.685469900000001)",45.7128104,9.6854699,1.8993358814 km
68,IT001E00238484,24124,VIA ALPINI  8,00227950169,Bonaldi S.p.A.,Bergamo,BG,"(45.69522995500046, 9.669510065000452)",45.695229955,9.669510065,0.563124419494 km
69,IT001E25775685,24126,VIA S. BERNARDINO  96,00209070168,SOCIETA' ITALIANA ACETILENE E DERIVATI SIAD S.p.A.,Bergamo,BG,"(45.6817605, 9.662096000000002)",45.6817605,9.662096,2.12503590211 km
70,IT001E04135486,24127,VIA ANDREA VERGA 17,02574070161,Fassi S.r.l.,Bergamo,BG,"(45.6747272, 9.638624199999999)",45.6747272,9.6386242,3.69089652852 km
71,IT001E00086472,24126,VIA SAN BERNARDINO 102,03688760168,GCLUB Fitness & Therapy S.r.l.,Bergamo,BG,"(45.6799324, 9.663371)",45.6799324,9.663371,2.30177825241 km
72,IT001E25768352,24124,VIA TITO LEGRENZI 22,01804650164,Polini Motori S.p.A.,Bergamo,BG,"(45.7079347, 9.6907973)",45.7079347,9.6907973,1.90659554287 km
73,IT001E00250476,24122,VIA GARIBALDI  3,01229060163,C.D.L. Immobiliare ,Bergamo,BG,"(45.6956104, 9.6662543)",45.6956104,9.6662543,0.557864764105 km
74,IT001E25763615,24121,VIA ARENA - BERGAMO,80016630164,Fondaz.Congregazione Misericordia Maggiore di Bg ,Bergamo,BG,"(45.7036934, 9.660215599999999)",45.7036934,9.6602156,0.774832319938 km
75,IT001E17684128,24128,VIA FRANCESCO NULLO  SNC,00455110163,CLINICA CASTELLI S.p.A.,Bergamo,BG,"(45.6959987, 9.660231099999999)",45.6959987,9.6602311,0.82515076746 km
76,IT001E00120493,24124,GIANBATTISTA ROTA SNC,00794050161,OROBICA PESCA S.r.l.,Bergamo,BG,"(45.706027, 9.6910132)",45.706027,9.6910132,1.83764135814 km
77,IT001E25736617,24127,VIA GIOSUE CARDUCCI 27,00228420162,SIAD MACCHINE IMPIANTI S.p.A.,Bergamo,BG,"(45.6888422, 9.6525581)",45.6888422,9.6525581,1.79816612465 km
78,IT001E25763633,24121,VIA ARENA - BERGAMO,80016630164,Fondaz.Congregazione Misericordia Maggiore di Bg ,Bergamo,BG,"(45.7036934, 9.660215599999999)",45.7036934,9.6602156,0.774832319938 km
79,IT001E04645379,24123,VIA RUGGERI DA STABELLO  14,02184590160,BETTINELLI LUCIANO S.r.l.,Bergamo,BG,"(45.7146578, 9.6659565)",45.7146578,9.6659565,1.61450583821 km
80,IT001E00224242,24126,VIA SAN BERNARDINO  92,00209070168,SOCIETA' ITALIANA ACETILENE E DERIVATI SIAD S.p.A.,Bergamo,BG,"(45.6824, 9.66214)",45.6824,9.66214,2.05539332882 km
81,IT001E25762919,24121,PIAZZA DUOMO - BERGAMO,80016630164,Fondaz.Congregazione Misericordia Maggiore di Bg ,Bergamo,BG,"(45.7032098, 9.662687)",45.7032098,9.662687,0.582650142445 km
82,IT001E04415888,24126,VIA SAN GIOVANNI BOSCO  30,00773390166,PANIFICIO ARTIGIANALE F.LLI GAMBA S.n.c.,Bergamo,BG,"(45.6835136, 9.676484799999999)",45.6835136,9.6764848,1.95494236369 km
83,IT001E16573542,24125,VIA GLENO  SNC,03173670161,Associazione Cittadella Dello Sport ,Bergamo,BG,"(45.69785, 9.70247)",45.69785,9.70247,2.62925301388 km
84,IT001E18220851,24126,Via Zanchi  22 24126 Bergamo c/o centro Galassia,09069420967,ALMADOM.US S.r.l.,Bergamo,BG,"(45.67237859999999, 9.6752188)",45.6723786,9.6752188,3.13982098909 km
85,IT001E00086473,24126,VIA SAN BERNARDINO 102,03688760168,GCLUB Fitness & Therapy S.r.l.,Bergamo,BG,"(45.6799324, 9.663371)",45.6799324,9.663371,2.30177825241 km
86,IT001E04001484,24124,VLE GIULIO CESARE 71,00204010243,Banca Popolare di Vicenza S.p.A.,Bergamo,BG,"(45.717748, 9.6824731)",45.717748,9.6824731,2.21116462054 km
87,IT001E25545541,24122,PIAZZA PONTIDA  16,03122760162,TRE P S.p.A.,Bergamo,BG,"(45.692784, 9.663454399999999)",45.692784,9.6634544,0.934278903478 km
88,IT001E00120518,24127,VIA GRUMELLO  47,03172560165,CETA S.p.A.,Bergamo,BG,"(45.6731404, 9.642987699999999)",45.6731404,9.6429877,3.6288359261 km
89,IT001E25783989,24125,V  BORGO PALAZZO 65,03854650169,INIMITABLE SERVICE S.R.L. UNIPERSONALE ,Bergamo,BG,"(45.6955596, 9.6847337)",45.6955596,9.6847337,1.34085325851 km
90,IT001E00120505,24125,Via Gavazzeni  21,00468520168,CLINICHE GAVAZZENI S.p.A.,Bergamo,BG,"(45.6887693, 9.6790004)",45.6887693,9.6790004,1.50213145247 km
91,IT001E25768408,24124,VIA TITO LEGRENZI 2,00228420162,SIAD MACCHINE IMPIANTI S.p.A.,Bergamo,BG,"(45.7116499, 9.68498)",45.7116499,9.68498,1.77981690775 km
92,IT001E00234847,24124,VIA DEPRETIS  SNC,03082900162,Bonaldi Motori S.p.A.,Bergamo,BG,"(45.7071254, 9.695637699999999)",45.7071254,9.6956377,2.21776525991 km
93,IT001E04634029,24122,P.LE REPUBBLICA  1,00870990165,Finsise S.r.l.,Bergamo,BG,"(45.6974532, 9.6677888)",45.6974532,9.6677888,0.325420196632 km
94,IT001E00086385,24100,Via Bono  3/b,01894880168,Lombardini Discount S.p.A.,Bergamo,BG,"(45.6924153, 9.677687899999999)",45.6924153,9.6776879,1.11055190085 km
95,IT001E04791836,24122,VIA TIRABOSCHI  48,03754540163,MI-NY S.r.l.,Bergamo,BG,"(45.6933231, 9.6680317)",45.6933231,9.6680317,0.775858190696 km
96,IT001E25542887,24121,VIA PARTIGIANI,01085720165,Business Planning S.p.A.,Bergamo,BG,"(45.697479, 9.6719513)",45.697479,9.6719513,0.391984027197 km
97,IT001E14656470,24121,VIA PINAMONTE DA BREMBATE  10,02876790169,ANETI' DI ANGELO VERZERI E C. S.a.s.,Bergamo,BG,"(45.6946321, 9.6814787)",45.6946321,9.6814787,1.16414062756 km
98,IT001E17621829,24126,VIA STEZZANO  C/O PARCO SCIENTIFICO TECNOLOGICO KILOMETRO ROSSO  87,03486370160,Innowatio S.p.A.,Bergamo,BG,"(45.6603223, 9.6521384)",45.6603223,9.6521384,4.62862992941 km
99,IT001E00086409,24100,Via Spaventa  1,04850790967,Gruppo Coin S.p.A.,Bergamo,BG,"(45.6922204, 9.667187)",45.6922204,9.667187,0.905297151257 km
100,IT001E25781703,24125,VIA GHISLANDI  59,00222680167,POMA MARIO S.r.l.,Bergamo,BG,"(45.6993074, 9.6857235)",45.6993074,9.6857235,1.3155276716 km
101,IT001E25740755,24126,VIA SAN GIOVANNI BOSCO  29,04154370169,M.G.2 di Matteo Gamba S.a.s.,Bergamo,BG,"(45.6851291, 9.6747637)",45.6851291,9.6747637,1.74477911253 km
102,IT001E25751491,24121,Via Vittorio Emanuele 17,02180520161,Comprabene S.p.A.,Bergamo,BG,"(45.69736220000001, 9.6669438)",45.6973622,9.6669438,0.357713835848 km
103,IT001E17856474,24126,VIA MONTE GLENO  49,80017150162,Fondaz.Casa di Ricovero S.Maria Ausiliatrice ONLUS ,Bergamo,BG,"(45.69525489999999, 9.706059300000001)",45.6952549,9.7060593,2.94831656096 km
104,IT001E04356314,24126,VIA STEZZANO  87,02801580164,PARCO SCIENTIFICO TECNOLOGICO KILOMETRO ROSSO SPA ,Bergamo,BG,"(45.6671442, 9.6597973)",45.6671442,9.6597973,3.75012666025 km
105,IT001E25739444,24126,VIA DA PREZZATE  14,95089470165,Condominio da Prezzate 14 ,Bergamo,BG,"(45.682519, 9.6710529)",45.682519,9.6710529,1.98098888029 km
106,IT001E00086419,24122,Via Giuseppe Garibaldi,02180520161,Comprabene S.p.A.,Bergamo,BG,"(45.6955877, 9.6636439)",45.6955877,9.6636439,0.662272793309 km
107,IT001E04645387,24123,VIA EZIO VANONI  SN,02184590160,BETTINELLI LUCIANO S.r.l.,Bergamo,BG,"(45.7126716, 9.6711163)",45.7126716,9.6711163,1.38839595684 km
108,IT001E25533800,24121,VIA MALJ TABAJANI - BERGAMO,80016630164,Fondaz.Congregazione Misericordia Maggiore di Bg ,Bergamo,BG,"(45.695297, 9.678384)",45.695297,9.678384,0.92376811799 km
109,IT001E25782426,24125,VIA BORGO PALAZZO,95010110161,Istituto d'Istruzione Superiore Mario Rigoni Stern ,Bergamo,BG,"(45.6927104, 9.6950781)",45.6927104,9.6950781,2.20636802702 km
110,IT001E04781684,24126,VIA BELLAFINO,00228060166,TELMOTOR S.p.A.,Bergamo,BG,"(45.67314589999999, 9.6759838)",45.6731459,9.6759838,3.06580739402 km
111,IT001E00120489,24124,Via Corridoni n. 34,01255720169,Esselunga S.p.A.,Bergamo,BG,"(45.7074767, 9.690658599999999)",45.7074767,9.6906586,1.87465684044 km
112,IT001E15092019,24127,VIA GRUMELLO,01871960165,Gieffe S.r.l.,Bergamo,BG,"(45.6725776, 9.642313099999999)",45.6725776,9.6423131,3.7100632506 km
113,IT001E00120492,24124,VIA CESARE CORRENTI  23,03082900162,Bonaldi Motori S.p.A.,Bergamo,BG,"(45.7073145, 9.699052)",45.7073145,9.699052,2.47575099 km
114,IT001E14099112,24125,VIA BRAMANTE 7/A,95164770166,Sorint.Lab S.p.A.,Bergamo,BG,"(45.6840513, 9.694117499999999)",45.6840513,9.6941175,2.66724977566 km
115,IT001E00086466-ART,24126,Via Zanica  92,01261900169,Nuovo Istituto Italiano d'Arti Grafiche S.p.A.,Bergamo,BG,"(45.6532046, 9.717799099999999)",45.6532046,9.7177991,6.47264158243 km
116,IT001E27258337,24121,VIA ROMA  5,00773390166,PANIFICIO ARTIGIANALE F.LLI GAMBA S.n.c.,Bergamo,BG,"(45.6899379, 9.712715)",45.6899379,9.712715,3.60177764624 km
117,IT001E25782428,24125,VIA BORGO PALAZZO  193,03930380161,LDD S.P.A.,Bergamo,BG,"(45.6909539, 9.7015999)",45.6909539,9.7015999,2.75045758677 km
118,IT001E25744813,24121,VIA PARTIGIANI,02210110165,Studio Comm. Berta Nembrini & Associati ,Bergamo,BG,"(45.697479, 9.6719513)",45.697479,9.6719513,0.391984027197 km
119,IT001E18329855,24123,VIA CRESCENZI 65 I,80040550164,PARROCCHIA SANTA TERESA DI LISIEUX ,Bergamo,BG,"(45.7101753, 9.675595999999999)",45.7101753,9.675596,1.21776393967 km
120,IT001E25744840,24121,VIA PARTIGIANI,01085720165,Business Planning S.p.A.,Bergamo,BG,"(45.697479, 9.6719513)",45.697479,9.6719513,0.391984027197 km
121,IT001E18223807,24126,VIA ZANICA  1,03383180167,Gioca S.r.l.,Bergamo,BG,"(45.68609960000001, 9.6735584)",45.6860996,9.6735584,1.61726642985 km
122,IT001E04634032,24122,P.LE REPUBBLICA  2,00870990165,Finsise S.r.l.,Bergamo,BG,"(45.6977298, 9.6678201)",45.6977298,9.6678201,0.295176017611 km
123,IT001E04230489,24126,PIAZZA VARSAVIA  6,01229060163,C.D.L. Immobiliare ,Bergamo,BG,"(45.6939099, 9.6440246)",45.6939099,9.6440246,2.06183452973 km
124,IT001E16348459,24122,VIA SANTï¿½ALESSANDRO SNC,95159990167,Condominio Sant'Alessandro ,Bergamo,BG,"(45.6945115, 9.669839)",45.6945115,9.669839,0.645153167785 km
125,IT001E16116903,24126,VIA STEZZANO  87,03486370160,Innowatio S.p.A.,Bergamo,BG,"(45.6671442, 9.6597973)",45.6671442,9.6597973,3.75012666025 km
126,IT001E25787414,24121,VIA ANGELO MAZZI  36,04131160162,Bofa di Verzeri S.  A. & C. S.a.s.,Bergamo,BG,"(45.6991714, 9.6790148)",45.6991714,9.6790148,0.798148330593 km
127,IT001E25772331,24127,VIA G. B. MORONI,02388300168,Centro Studi Superiori S.r.l.,Bergamo,BG,"(45.6844372, 9.656669800000001)",45.6844372,9.6566698,2.0013959674 km
128,IT001E25753842,24123,VIA SAN COLOMBANO 20 - c/o Parrocchia,95012400164,Parrocchia San Colombano ,Bergamo,BG,"(45.71761610000001, 9.6746112)",45.7176161,9.6746112,1.97792336189 km
129,IT001E00120475,24121,Via Camozzi 115,00826770059,Supermercati PAM Spa,Bergamo,BG,"(45.6980526, 9.6768878)",45.6980526,9.6768878,0.670268461906 km
130,IT001E25758510,24126,VIA CRESCENZI 65 I - c/o Sottoscala + Piano primo e rialzato,80040550164,PARROCCHIA SANTA TERESA DI LISIEUX ,Bergamo,BG,"(45.69522995500046, 9.669510065000452)",45.695229955,9.669510065,0.563124419494 km
131,IT001E04058444,24123,Via Tremana,03930380161,LDD S.P.A.,Bergamo,BG,"(45.7153171, 9.6820244)",45.7153171,9.6820244,1.95967939116 km
132,IT001E04719492,24128,QUATTRO NOVEMBRE 68,00794050161,OROBICA PESCA S.r.l.,Bergamo,BG,"(45.69410999999999, 9.654349999999999)",45.69411,9.65435,1.3236965376 km
133,IT001E25765576,24124,VIA CESARE CORRENTI  33,00209440163,Termigas Bergamo S.p.A.,Bergamo,BG,"(45.7064061, 9.6982909)",45.7064061,9.6982909,2.38888125012 km
134,IT001E00120513,24126,ZANICA SNC,02517580920,Wind Tre S.p.a.u.s.,Bergamo,BG,"(45.6798919, 9.6719964)",45.6798919,9.6719964,2.27868682156 km
135,IT001E25769704,24123,VIA VALVERDE  107,01471750164,IMMOBILIARE DELLA TORRE S.r.l.,Bergamo,BG,"(45.7180362, 9.655348400000001)",45.7180362,9.6553484,2.23773875842 km
136,IT001E25546998,24121,VIA SANTA CATERINA - BERGAMO,80016630164,Fondaz.Congregazione Misericordia Maggiore di Bg ,Bergamo,BG,"(45.7053528, 9.6821899)",45.7053528,9.6821899,1.17946590175 km
137,IT001E04645378,24123,VIA CRISTOFORO BAIONI  49,02184590160,BETTINELLI LUCIANO S.r.l.,Bergamo,BG,"(45.711785, 9.670753699999999)",45.711785,9.6707537,1.28719456379 km
138,IT001E00213760,24100,Via Borfuro 4,05034580968,LA RINASCENTE SPA,Bergamo,BG,"(45.69428720000001, 9.6670085)",45.6942872,9.6670085,0.681741731017 km
139,IT001E25739229,24126,VIA FURIETTI,02033460169,Accademia Bergamasca Acconciatori ,Bergamo,BG,"(45.6837678, 9.675006)",45.6837678,9.675006,1.89585755464 km
140,IT001E04566247,24122,PIAZZA GUGLIELMO MARCONI 7,05041761007,Fast Service Italia S.p.A.,Bergamo,BG,"(45.6903837, 9.6750656)",45.6903837,9.6750656,1.20030972794 km
141,IT001E04415887,24126,VIA SAN GIOVANNI BOSCO  27,00773390166,PANIFICIO ARTIGIANALE F.LLI GAMBA S.n.c.,Bergamo,BG,"(45.6853405, 9.6745317)",45.6853405,9.6745317,1.71740297106 km
142,IT001E17277296,24126,VIA STEZZANO 87,03486370160,Innowatio S.p.A.,Bergamo,BG,"(45.6671442, 9.6597973)",45.6671442,9.6597973,3.75012666025 km
143,IT001E17195558,24126,VIA STEZZANO  87,02801580164,PARCO SCIENTIFICO TECNOLOGICO KILOMETRO ROSSO SPA ,Bergamo,BG,"(45.6671442, 9.6597973)",45.6671442,9.6597973,3.75012666025 km
144,IT001E04645352,24121,VIA ANGELO MAJ  8,80029600162,IST. MAGISTR. STAT. SECCO SUARDO ,Bergamo,BG,"(45.6934453, 9.6743851)",45.6934453,9.6743851,0.871741401373 km
145,IT001E04816287,24126,VIA FRANCESCO BELLAFINO  10,03854650169,INIMITABLE SERVICE S.R.L. UNIPERSONALE ,Bergamo,BG,"(45.6733779, 9.6764674)",45.6733779,9.6764674,3.04752069772 km
146,IT001E04781690,24126,VIA ZANICA,00228060166,TELMOTOR S.p.A.,Bergamo,BG,"(45.6492462, 9.7061937)",45.6492462,9.7061937,6.37330564618 km
147,IT001E04190453,24125,BORGO PALAZZO 90/B,03854650169,INIMITABLE SERVICE S.R.L. UNIPERSONALE ,Bergamo,BG,"(45.6951861, 9.6869403)",45.6951861,9.6869403,1.51554044932 km
148,IT001E00086488,24126,Via Stendhal  3,00115180283,In's Mercato S.p.A.,Bergamo,BG,"(45.6786591, 9.6744678)",45.6786591,9.6744678,2.44179543757 km
149,IT001E17803233,24126,VIA STEZZANO  87,02801580164,PARCO SCIENTIFICO TECNOLOGICO KILOMETRO ROSSO SPA ,Bergamo,BG,"(45.6671442, 9.6597973)",45.6671442,9.6597973,3.75012666025 km
150,IT001E17383582,24126,VIA STEZZANO  87,95185430162,Condominio Edificio A1 -,Bergamo,BG,"(45.6671442, 9.6597973)",45.6671442,9.6597973,3.75012666025 km
151,IT001E14581264,24125,VIA GAVAZZENI,80028780163,I.S.I.S. Guido Galli ,Bergamo,BG,"(45.68948, 9.679549999999999)",45.68948,9.67955,1.4593879828 km
152,IT001E00086468,24100,Via Carducci,03349310965,Auchan S.p.A.,Bergamo,BG,"(45.6890478, 9.6543329)",45.6890478,9.6543329,1.68620034375 km
153,IT001E25753755,24123,Via alla Zarda 1 - c/o Fabbriceria parrocchiale per ab.,95012400164,Parrocchia San Colombano ,Bergamo,BG,"(45.69522995500046, 9.669510065000452)",45.695229955,9.669510065,0.563124419494 km
154,IT001E18263975,24123,VIA CRESCENZI 65 I,80040550164,PARROCCHIA SANTA TERESA DI LISIEUX ,Bergamo,BG,"(45.7101753, 9.675595999999999)",45.7101753,9.675596,1.21776393967 km
155,IT001E25753805,24123,VIA SAN COLOMBANO 22 - c/o Parrocchia,95012400164,Parrocchia San Colombano ,Bergamo,BG,"(45.71761610000001, 9.6746112)",45.7176161,9.6746112,1.97792336189 km
156,IT001E00086404,24122,Via Tiraboschi  53,03147990273,Oviesse SpA,Bergamo,BG,"(45.693583, 9.669574899999999)",45.693583,9.6695749,0.746009558144 km
157,IT001E00120544,24129,VIA GIACOMO PUCCINI  54,02180520161,Comprabene S.p.A.,Bergamo,BG,"(45.6957604, 9.6266388)",45.6957604,9.6266388,3.32867431523 km
158,IT001E00248754,24127,VIA BELLI  10,01597030160,Bettinelli Trattamenti Termici ,Bergamo,BG,"(45.69522995500046, 9.669510065000452)",45.695229955,9.669510065,0.563124419494 km
159,IT001E17614055,24123,VIA CARLO PESCARIA  27,03500440163,TEJAR S.r.l.,Bergamo,BG,"(45.7151839, 9.6754748)",45.7151839,9.6754748,1.73431007718 km
160,IT001E18203237,24123,BERGAMO - VIA CRESCENZI 65 I - Manifestazione,80040550164,PARROCCHIA SANTA TERESA DI LISIEUX ,Bergamo,BG,"(45.69522995500046, 9.669510065000452)",45.695229955,9.669510065,0.563124419494 km
161,IT001E04645384,24123,VIA A. GHISLERI  40,02184590160,BETTINELLI LUCIANO S.r.l.,Bergamo,BG,"(45.7174278, 9.670335)",45.7174278,9.670335,1.90947326654 km
162,IT001E04645382,24123,VIA CROCEFISSO  43,02184590160,BETTINELLI LUCIANO S.r.l.,Bergamo,BG,"(45.71714, 9.668669999999999)",45.71714,9.66867,1.87423976654 km
163,IT001E04415889,24126,VIA SAN GIOVANNI BOSCO  27,00773390166,PANIFICIO ARTIGIANALE F.LLI GAMBA S.n.c.,Bergamo,BG,"(45.6853405, 9.6745317)",45.6853405,9.6745317,1.71740297106 km
164,IT001E04214656,24122,VIA GHISLANZONI 37,80016630164,Fondaz.Congregazione Misericordia Maggiore di Bg ,Bergamo,BG,"(45.6925581, 9.6699294)",45.6925581,9.6699294,0.861825355565 km
165,IT001E16070673,24125,VIA A. BOITO  18A,00468520168,CLINICHE GAVAZZENI S.p.A.,Bergamo,BG,"(45.6962302, 9.6906541)",45.6962302,9.6906541,1.75382557527 km
166,IT001E25754293,24123,Via Crocefisso 8,95012400164,Parrocchia San Colombano ,Bergamo,BG,"(45.715226, 9.6671164)",45.715226,9.6671164,1.66715258972 km
167,IT001E00086501,24128,Via XXIV Maggio  52,00115180283,In's Mercato S.p.A.,Bergamo,BG,"(45.6936793, 9.649171299999999)",45.6936793,9.6491713,1.70183833031 km
168,IT001E00086466-SONO,24126,Via Zanica  92,13139060159,SONOPRESS ITALIA S.r.l.,Bergamo,BG,"(45.6532046, 9.717799099999999)",45.6532046,9.7177991,6.47264158243 km
169,IT001E25753806,24123,VIA SAN COLOMBANO 22 - c/o Casa Parrocchiale,95012400164,Parrocchia San Colombano ,Bergamo,BG,"(45.69522995500046, 9.669510065000452)",45.695229955,9.669510065,0.563124419494 km
170,IT001E17905588,24126,C/O KILOMETRO ROSSO - VIA STEZZANO,02608530164,Co.Mark S.p.A.,Bergamo,BG,"(45.6603223, 9.6521384)",45.6603223,9.6521384,4.62862992941 km
171,IT001E00086466,24126,Via Zanica  92,01261900169,Nuovo Istituto Italiano d'Arti Grafiche S.p.A.,Bergamo,BG,"(45.6532046, 9.717799099999999)",45.6532046,9.7177991,6.47264158243 km
172,IT001E00086416,24122,PIAZZA VITTORIO VENETO  15,04169430164,EG S.r.l.,Bergamo,BG,"(45.69529, 9.66912)",45.69529,9.66912,0.554660769327 km
173,IT001E00086458,24125,VIA MONTE GLENO,80017150162,Fondaz.Casa di Ricovero S.Maria Ausiliatrice ONLUS ,Bergamo,BG,"(45.6967728, 9.702975799999999)",45.6967728,9.7029758,2.68321804646 km
174,IT001E00245060,24127,VIA GRUMELLO 23,13465930157,PRELIOS SGR ,Bergamo,BG,"(45.6764879, 9.6462535)",45.6764879,9.6462535,3.17811375449 km
175,IT001E04492920,24125,VIA GLENO  SNC,03173670161,Associazione Cittadella Dello Sport ,Bergamo,BG,"(45.69785, 9.70247)",45.69785,9.70247,2.62925301388 km
176,IT001E31348065,35129,VIA NONA STRADA 15,02202650244,BISSON AUTO S.p.A.,Padova,PD,"(45.4131207, 11.9342577)",45.4131207,11.9342577,4.81107127482 km
177,IT001E04185425,35127,OLMO DI CAMIN NUOVO SN,02517580920,Wind Tre S.p.a.u.s.,Padova,PD,"(45.389017436536, 11.9509319580404)",45.3890174365,11.950931958,6.49574458027 km
178,IT001E04078183,35121,VIA TRIESTE 45,00204010243,Banca Popolare di Vicenza S.p.A.,Padova,PD,"(45.4124614, 11.8836788)",45.4124614,11.8836788,0.908651099136 km
179,IT001E34141463,35141,VIA NEGRELLI  18,01356270247,Cosfara In liquidazione S.p.A.,Padova,PD,"(45.40458479999999, 11.8609856)",45.4045848,11.8609856,1.07339787988 km
180,IT001E00053832,35100,Via Rezzonico 35,00496550278,CIBIS SPA,Padova,PD,"(45.41401, 11.885363)",45.41401,11.885363,1.10360822774 km
181,IT001E00053846,35132,VIA T. ASPETTI  34,02180520161,Comprabene S.p.A.,Padova,PD,"(45.4205696, 11.8809477)",45.4205696,11.8809477,1.40987007103 km
182,IT001E04185411,35100,Via J. D'Avanzo 47,00115180283,In's Mercato S.p.A.,Padova,PD,"(45.40943991000046, 11.871710052000424)",45.40943991,11.871710052,0.109621055503 km
183,IT001E04139008,35123,VIA DEL PESCAROTTO  19,03044500241,Ceccato Motors S.r.l.,Padova,PD,"(45.4120624, 11.8965889)",45.4120624,11.8965889,1.87012886931 km
184,IT001E34594774,35129,VIA DELL IPPODROMO  SNC,00167460278,VEGA CARBURANTI S.p.A.,Padova,PD,"(45.4271182, 11.9160315)",45.4271182,11.9160315,3.91095528209 km
185,IT001E34521700,35121,VIA VIGONOVESE  SNC,00167460278,VEGA CARBURANTI S.p.A.,Padova,PD,"(45.4041448, 11.9276034)",45.4041448,11.9276034,4.30671130239 km
186,IT001E04094063,35126,COMINO GIUSEPPE SN,02517580920,Wind Tre S.p.a.u.s.,Padova,PD,"(45.3880274363741, 11.8853519472965)",45.3880274364,11.8853519473,2.53902734073 km
187,IT001E04279567,35127,CORSO STATI UNITI  1/16,01656520242,Trivellato S.p.A.,Padova,PD,"(45.3973671, 11.9332515)",45.3973671,11.9332515,4.89190194682 km
188,IT001E04094093,35121,SAN FRANCESCO 39,02517580920,Wind Tre S.p.a.u.s.,Padova,PD,"(45.406159, 11.8781628)",45.406159,11.8781628,0.521149459754 km
189,IT001E34214204,35136,VIA DELLA BISCIA,01356270247,Cosfara In liquidazione S.p.A.,Padova,PD,"(45.4235619, 11.83995)",45.4235619,11.83995,3.04539603463 km
190,IT001E31259646,35129,VIA SAVELLI GIOVANNI 102/D,95164770166,Sorint.Lab S.p.A.,Padova,PD,"(45.4096864, 11.9131045)",45.4096864,11.9131045,3.13569469815 km
191,IT001E00053761,35126,via Crescini 96,(null),BILLA A.G.,Padova,PD,"(45.39063669999999, 11.8898119)",45.3906367,11.8898119,2.44180793194 km
192,IT001E00053718,35100,Via Altinate  8,04850790967,Gruppo Coin S.p.A.,Padova,PD,"(45.4088937, 11.8785896)",45.4088937,11.8785896,0.43428708602 km
193,IT001E32279465,35010,Via Borgofuro - Loc. Megliadino,07071700152,BENNET S.p.A.,Padova,PD,,45.4091666667,11.8730555556,
194,IT001E31343274,35131,VIA DEL PESCAROTTO 23,04552330286,Carrozzeria Ceccato S.r.l.,Padova,PD,"(45.4152234, 11.8973471)",45.4152234,11.8973471,2.01716016192 km
195,IT001E33695030,35124,Via Guasti  12B,00115180283,In's Mercato S.p.A.,Padova,PD,"(45.3826242, 11.8792347)",45.3826242,11.8792347,2.98933266505 km
196,IT001E04617609,35127,VIA ANDORRA  13,00209070168,SOCIETA' ITALIANA ACETILENE E DERIVATI SIAD S.p.A.,Padova,PD,"(45.39628, 11.94927)",45.39628,11.94927,6.13649769877 km
197,IT001E04094056,35136,DEL CIMITERO SN,02517580920,Wind Tre S.p.a.u.s.,Padova,PD,"(45.4146311, 11.8490857)",45.4146311,11.8490857,1.97219383432 km
198,IT001E00052780,35137,Piazza Mazzini  43,00115180283,In's Mercato S.p.A.,Padova,PD,"(45.4135634, 11.8735927)",45.4135634,11.8735927,0.490457887914 km
199,IT001E31607043,35124,PONTEDERA SN,02517580920,Wind Tre S.p.a.u.s.,Padova,PD,"(45.377727434687, 11.8815019466653)",45.3777274347,11.8815019467,3.5561857912 km
200,IT001E00114525,35133,Galleria San Carlo; 18,03147990273,Oviesse SpA,Padova,PD,"(45.4185984, 11.8958355)",45.4185984,11.8958355,2.06843634488 km
201,IT001E04094059,35131,V RISMONDO FRANCESCO SNC,02517580920,Wind Tre S.p.a.u.s.,Padova,PD,"(45.4149174407791, 11.8933319486039)",45.4149174408,11.8933319486,1.71108056111 km
202,IT001E31342571,35131,PZA SALVEMINI 7,00204010243,Banca Popolare di Vicenza S.p.A.,Padova,PD,"(45.4135559, 11.88331)",45.4135559,11.88331,0.939325809292 km
203,IT001E00114521,35133,Via Tiziano Aspetti  218,00115180283,In's Mercato S.p.A.,Padova,PD,"(45.4277327, 11.8877653)",45.4277327,11.8877653,2.36290662111 km
204,IT001E04094094,35129,DELL IPPODROMO SN,02517580920,Wind Tre S.p.a.u.s.,Padova,PD,"(45.424997, 11.93195)",45.424997,11.93195,4.9341596975 km
205,IT001E31689662,35142,PALERMO SN,02517580920,Wind Tre S.p.a.u.s.,Padova,PD,"(45.4251974424632, 11.8807519465425)",45.4251974425,11.8807519465,1.88074857334 km
206,IT001E04440175,35139,VIA LEONI 5,00204010243,Banca Popolare di Vicenza S.p.A.,Padova,PD,"(45.4098456, 11.8708995)",45.4098456,11.8708995,0.184881956857 km
207,IT001E31259815,35127,VIA JACOPO FACCIOLA 59,00204010243,Banca Popolare di Vicenza S.p.A.,Padova,PD,"(45.3935763, 11.8908404)",45.3935763,11.8908404,2.22288160772 km
208,IT001E32197550,35129,VIA S.MARCO  2,03846980286,PITTAROSSO  S.p.A.,Padova,PD,"(45.4198416, 11.9325709)",45.4198416,11.9325709,4.80733655354 km
209,IT001E04078219,35139,VIA FLAVIO BUSONERA  3,00204010243,Banca Popolare di Vicenza S.p.A.,Padova,PD,"(45.4089292, 11.8754381)",45.4089292,11.8754381,0.188372623705 km
210,IT001E31379912,35123,VIA B. BELLANO 15,00226500288,PROVINCIA PADOVANA DEI FRATI MINORI CONVENTUALI ,Padova,PD,"(45.40208670000001, 11.8788381)",45.4020867,11.8788381,0.90779991706 km
211,IT001E00052762,35136,MAGAROTTO ANTONIO 2,02517580920,Wind Tre S.p.a.u.s.,Padova,PD,"(45.4102776, 11.8478078)",45.4102776,11.8478078,1.98031952174 km
212,IT001E04139006,35123,VIA DEL PESCAROTTO  SNC,03044500241,Ceccato Motors S.r.l.,Padova,PD,"(45.4140798, 11.8967599)",45.4140798,11.8967599,1.93425666998 km
213,IT001E31308318,35138,VIA BELFIORE 6,01824470247,HILDING ANDERS ITALY S.r.l.,Padova,PD,"(45.4176477, 11.8653436)",45.4176477,11.8653436,1.11932203576 km
214,IT001E04880215,35127,VIA SVIZZERA  7,05966680158,ATS Isolanti S.p.A.,Padova,PD,"(45.39694799999999, 11.956242)",45.396948,11.956242,6.65290750386 km
215,IT001E04800715,35134,MORONI ANDREA SN,02517580920,Wind Tre S.p.a.u.s.,Padova,PD,"(45.4297574432107, 11.8845619471676)",45.4297574432,11.8845619472,2.45929246741 km
216,IT001E00114482,35126,Via Facciolati  32a,00115180283,In's Mercato S.p.A.,Padova,PD,"(45.40943991000046, 11.871710052000424)",45.40943991,11.871710052,0.109621055503 km
217,IT001E04515374,35129,VIA SETTIMA STRADA 11,01656520242,Trivellato S.p.A.,Padova,PD,"(45.41399759999999, 11.9303121)",45.4139976,11.9303121,4.51410320811 km
218,IT001E31416842,35129,VIA NONA STRADA  23/G,02341030241,SAIV S.p.A.,Padova,PD,"(38.62978082502616, -81.33061827361365)",45.4091666667,11.8730555556,7307.23446757 km
219,IT001E04105657,35131,VIA G.B. RICCI  6,03317390288,LYNX S.p.A.,Padova,PD,"(45.4178606, 11.894337)",45.4178606,11.894337,1.92580312842 km
220,IT001E04094078,35123,MARGHERA 26,02517580920,Wind Tre S.p.a.u.s.,Padova,PD,"(45.39245589999999, 11.8726975)",45.3924559,11.8726975,1.85743966819 km
221,IT001E04370224,35128,VIA S.MASSIMO 25,80007810288,Ist.Teologico Missioni Estere dei Frati Minori c ,Padova,PD,"(45.4045366, 11.8889427)",45.4045366,11.8889427,1.34600211401 km
222,IT001E00114483,35127,via Facciolati 80/82,(null),BILLA A.G.,Padova,PD,"(45.3937469, 11.8901488)",45.3937469,11.8901488,2.1743929853 km
223,IT001E04078179,35131,PZA SALVEMINI 4,00204010243,Banca Popolare di Vicenza S.p.A.,Padova,PD,"(45.4135559, 11.88331)",45.4135559,11.88331,0.939325809292 km
224,IT001E00052917,35128,V VENEZIA 59,04850790967,Gruppo Coin S.p.A.,Padova,PD,"(45.40943991000046, 11.871710052000424)",45.40943991,11.871710052,0.109621055503 km
225,IT001E31379020,35123,VIA DONATELLO 23,00226500288,PROVINCIA PADOVANA DEI FRATI MINORI CONVENTUALI ,Padova,PD,"(45.3996897, 11.8793334)",45.3996897,11.8793334,1.16229834045 km
226,IT001E00053731,35122,Via Calvi 3,04784200968,RINASCENTE/UPIM SRL,Padova,PD,"(45.4085136, 11.8781219)",45.4085136,11.8781219,0.403200800932 km
227,IT001E00052776,35137,Largo Europa; sn,03147990273,Oviesse SpA,Padova,PD,,45.4091666667,11.8730555556,
228,IT001E00053753,35100,Piazzetta Santa Croce 17/18,00826770059,Supermercati PAM Spa,Padova,PD,"(45.3921025, 11.8714042)",45.3921025,11.8714042,1.90090694338 km
229,IT001E00053765,35126,Via Facciolati  32a,00115180283,In's Mercato S.p.A.,Padova,PD,"(45.3982567, 11.886507)",45.3982567,11.886507,1.60602321654 km
230,IT001E31067279,35129,VIA VENEZIA  90/B,02468550286,TEHERAN CARPETS S.r.l.,Padova,PD,"(45.4097195, 11.9064313)",45.4097195,11.9064313,2.6134842346 km
231,IT001E33617840,35129,GRASSI ANTONIO 2,02517580920,Wind Tre S.p.a.u.s.,Padova,PD,"(45.4094158, 11.9022826)",45.4094158,11.9022826,2.28816183052 km
232,IT001E00052918,35128,VIA VENEZIA  60,03846980286,PITTAROSSO  S.p.A.,Padova,PD,"(45.4091026, 11.9039085)",45.4091026,11.9039085,2.41529255039 km
233,IT001E04078192,35127,CSO STATI UNITI,00204010243,Banca Popolare di Vicenza S.p.A.,Padova,PD,"(45.3921703, 11.9416378)",45.3921703,11.9416378,5.69223917399 km
234,IT001E31383883,35122,PIAZZA CAVOUR 23,00204010243,Banca Popolare di Vicenza S.p.A.,Padova,PD,"(45.4088343, 11.8776066)",45.4088343,11.8776066,0.358183198398 km
235,IT001E04590122,35131,SITO DELLA STAZIONE SN,05041761007,Fast Service Italia S.p.A.,Padova,PD,"(45.4173498, 11.8804541)",45.4173498,11.8804541,1.07821451123 km
236,IT001E04094057,35135,DA BASSANO ANNIBALE 5,02517580920,Wind Tre S.p.a.u.s.,Padova,PD,"(45.4201854, 11.8761026)",45.4201854,11.8761026,1.24763101798 km
237,IT001E31378660,35123,VIA ORTO BOTANICO 7 - OPERA PANE DEI POVERI,00226500288,PROVINCIA PADOVANA DEI FRATI MINORI CONVENTUALI ,Padova,PD,"(45.3998241, 11.8797741)",45.3998241,11.8797741,1.16395883757 km
238,IT001E33722962,35127,FANZAGO 2,02517580920,Wind Tre S.p.a.u.s.,Padova,PD,"(45.3869834, 11.8954547)",45.3869834,11.8954547,3.02560819179 km
239,IT001E34171483,35132,VIA DE MENABUOI G. 64,00680690286,PARROCCHIA SANT'ANTONIO DA PADOVA IN ARCELLA ,Padova,PD,"(45.42087, 11.88638)",45.42087,11.88638,1.66722605743 km
240,IT001E31262622,35123,P.ZZA DEL SANTO 24,00226500288,PROVINCIA PADOVANA DEI FRATI MINORI CONVENTUALI ,Padova,PD,"(45.4016858, 11.8795399)",45.4016858,11.8795399,0.974151664243 km
241,IT001E00052753,35136,Via Chiesanuova  71,03586280285,Rewe Italia  Srl,Padova,PD,"(45.4118271, 11.8426485)",45.4118271,11.8426485,2.39861320424 km
242,IT001E34550372,35131,Via Masini  snc,00209440163,Termigas Bergamo S.p.A.,Padova,PD,"(45.4098565, 11.9007866)",45.4098565,11.9007866,2.17222719803 km
243,IT001E00053741,35122,Piazzetta Garzeria 3,00826770059,Supermercati PAM Spa,Padova,PD,"(45.4074586, 11.8776247)",45.4074586,11.8776247,0.404947456429 km
244,IT001E31477467,35100,V AVANZO JACOPO,00115180283,In's Mercato S.p.A.,Padova,PD,"(45.4185319, 11.8905605)",45.4185319,11.8905605,1.72073270671 km
245,IT001E04576968,35122,V OBERDAN GUGLIELMO 14,03147990273,Oviesse SpA,Padova,PD,"(45.4075899, 11.8763222)",45.4075899,11.8763222,0.310010593479 km
246,IT001E34659046,35129,VIALE DELL ELETTRONICA  SNC,00167460278,VEGA CARBURANTI S.p.A.,Padova,PD,,45.4091666667,11.8730555556,
247,IT001E31379221,35123,VIA V CESAROTTI 2 - CURIA PROVINCIALE,00226500288,PROVINCIA PADOVANA DEI FRATI MINORI CONVENTUALI ,Padova,PD,"(45.40943991000046, 11.871710052000424)",45.40943991,11.871710052,0.109621055503 km
248,IT001E31339888,35132,VIA BRESSAN  1,00680690286,PARROCCHIA SANT'ANTONIO DA PADOVA IN ARCELLA ,Padova,PD,"(45.4212188, 11.8865155)",45.4212188,11.8865155,1.7041775125 km
249,IT001E31054318,35123,P.ZZA DEL SANTO 24,00226500288,PROVINCIA PADOVANA DEI FRATI MINORI CONVENTUALI ,Padova,PD,"(45.4016858, 11.8795399)",45.4016858,11.8795399,0.974151664243 km
250,IT001E31298839,35141,PIAZZA DEL CASTELLO  25,03317390288,LYNX S.p.A.,Padova,PD,"(45.4033956, 11.8707054)",45.4033956,11.8707054,0.667262173128 km
251,IT001E00053847,35133,Galleria San Carlo  16,00826770059,Supermercati PAM Spa,Padova,PD,"(45.4297332, 11.8981687)",45.4297332,11.8981687,3.01467524436 km
252,IT001E00052911,35128,VIA VENEZIA   100,00204010243,Banca Popolare di Vicenza S.p.A.,Padova,PD,"(45.40943991000046, 11.871710052000424)",45.40943991,11.871710052,0.109621055503 km
253,IT001E00053735,35100,Piazza Cavour 9,00496550278,CIBIS SPA,Padova,PD,"(45.320105, 11.9120799)",45.4091666667,11.8730555556,10.3596412031 km
254,IT001E34659320,35129,VIALE DELL ELETTRONICA  SNC,04135090274,STARWASH S.r.l.s.,Padova,PD,"(45.408251, 11.8940789)",45.408251,11.8940789,1.64894050734 km
255,IT001E00114455,35129,Via Col. Galliano,03349310965,Auchan S.p.A.,Padova,PD,"(45.4123174, 11.9071599)",45.4123174,11.9071599,2.692604819 km
256,IT001E00053767,35100,Via Facciolati 168,03930380161,LDD S.P.A.,Padova,PD,"(45.40943991000046, 11.871710052000424)",45.40943991,11.871710052,0.109621055503 km
257,IT001E31261556,35141,VIA CERNAIA 2,03271520243,Zoodom Italia S.r.l.,Padova,PD,"(45.40348849999999, 11.8630303)",45.4034885,11.8630303,1.00709634474 km
258,IT001E33578754,35127,URUGUAY 30,02517580920,Wind Tre S.p.a.u.s.,Padova,PD,"(45.3989339, 11.928169)",45.3989339,11.928169,4.46222817543 km
259,IT001E61706074,00034,VIA SABOTINO SNC,05041761007,Fast Service Italia S.p.A.,Colleferro,RM,"(41.736191, 13.0061606)",41.736191,13.0061606,0.564533255337 km
260,IT001E60291913,00034,CSO CSO TURATI F. 69,03147990273,Oviesse SpA,Colleferro,RM,"(42.15689988200046, 12.264358808000452)",41.7311111111,13.0063888889,77.6061412658 km
261,IT001E00019890,00034,Corso Turati  97,00115180283,In's Mercato S.p.A.,Colleferro,RM,"(41.7242083, 13.0052882)",41.7242083,13.0052882,0.772131733377 km
262,IT001E04599320,42124,VIA LENIN,09336350153,Gesta S.p.A.,Reggio Emilia,RE,"(44.6435798, 10.4725989)",44.6994444444,10.6327777778,14.1374801477 km
263,IT001E49480042,42124,VIA BEETHOVEN-CITTADELLA90.,09336350153,Gesta S.p.A.,Reggio Emilia,RE,"(46.1302898830005, 8.544640065000465)",44.6994444444,10.6327777778,228.029680442 km
264,IT001E04599080,42124,VIA MASCAGNI 13,09336350153,Gesta S.p.A.,Reggio Emilia,RE,"(44.7022133, 10.6135634)",44.7022133,10.6135634,1.5536295174 km
265,IT001E04598824,42124,VIA COMPARONI  1PX,09336350153,Gesta S.p.A.,Reggio Emilia,RE,"(46.1302898830005, 8.544640065000465)",44.6994444444,10.6327777778,228.029680442 km
266,IT001E51188013,42122,VIA BAGNI ALDO,09336350153,Gesta S.p.A.,Reggio Emilia,RE,"(44.6540814, 10.7237156)",44.6540814,10.7237156,8.7977746033 km
267,IT001E04638413,42124,VIA TEGGI  70/P,09336350153,Gesta S.p.A.,Reggio Emilia,RE,"(44.6906736, 10.5523341)",44.6906736,10.5523341,6.45034537323 km
268,IT001E04599187,42124,VIA NORMANDIA  30,09336350153,Gesta S.p.A.,Reggio Emilia,RE,"(44.71941289999999, 10.5969845)",44.7194129,10.5969845,3.60128885204 km
269,IT001E04598977,42124,PIAZZALE FIUME  2/A,09336350153,Gesta S.p.A.,Reggio Emilia,RE,"(44.6952942, 10.6264112)",44.6952942,10.6264112,0.683627304169 km
270,IT001E04598842,42124,VIA MELATO  2,09336350153,Gesta S.p.A.,Reggio Emilia,RE,"(44.6925797, 10.647403)",44.6925797,10.647403,1.38771886202 km
271,IT001E04599260,42124,VIA ORADOUR 2/A,09336350153,Gesta S.p.A.,Reggio Emilia,RE,"(44.70491819999999, 10.639448)",44.7049182,10.639448,0.805893178617 km
272,IT001E04599043,42124,VIA ZANICHELLI D.  2/A,09336350153,Gesta S.p.A.,Reggio Emilia,RE,"(44.69773929999999, 10.6182855)",44.6977393,10.6182855,1.16416948754 km
273,IT001E04599381,42124,VIA TASSONI,09336350153,Gesta S.p.A.,Reggio Emilia,RE,"(44.665962, 10.6186894)",44.665962,10.6186894,3.88478760308 km
274,IT001E04796993,42124,VANINI 15,02517580920,Wind Tre S.p.a.u.s.,Reggio Emilia,RE,"(44.7189191, 10.6383988)",44.7189191,10.6383988,2.20950801934 km
275,IT001E04638335,42124,VIA CARTESIO  18/A,09336350153,Gesta S.p.A.,Reggio Emilia,RE,"(44.6606918, 10.7393445)",44.6606918,10.7393445,9.48325018963 km
276,IT001E04598854,42124,VIA PODGORA 16/P,09336350153,Gesta S.p.A.,Reggio Emilia,RE,"(44.6887332, 10.6541217)",44.6887332,10.6541217,2.06859801964 km
277,IT001E04599445,42124,VIA VENTUN MARTIRI  1/A,09336350153,Gesta S.p.A.,Reggio Emilia,RE,"(46.1302898830005, 8.544640065000465)",44.6994444444,10.6327777778,228.029680442 km
278,IT001E04638394,42124,VIA CELLA ALL OLDO  32/A,09336350153,Gesta S.p.A.,Reggio Emilia,RE,"(44.7453296, 10.5530288)",44.7453296,10.5530288,8.1191448276 km
279,IT001E04638271,42124,V.LE ISONZO 40/A,09336350153,Gesta S.p.A.,Reggio Emilia,RE,"(44.70430899999999, 10.6304929)",44.704309,10.6304929,0.570103092993 km
280,IT001E04638377,42124,VIA SPAGNI  36/A,09336350153,Gesta S.p.A.,Reggio Emilia,RE,"(44.7446511, 10.6762294)",44.7446511,10.6762294,6.09000728037 km
281,IT001E04599104,42124,V.LE ISONZO 84/A,09336350153,Gesta S.p.A.,Reggio Emilia,RE,"(44.7027768, 10.6360699)",44.7027768,10.6360699,0.453000298824 km
282,IT001E04638321,42124,MASONE FORFAIT ENEL,09336350153,Gesta S.p.A.,Reggio Emilia,RE,,44.6994444444,10.6327777778,
283,IT001E48136663,42122,VIA ZAMENOF,09336350153,Gesta S.p.A.,Reggio Emilia,RE,"(44.7409052, 10.6962906)",44.7409052,10.6962906,6.82275474284 km
284,IT001E04599309,42124,VIA NIZZOLI 37/A,09336350153,Gesta S.p.A.,Reggio Emilia,RE,"(44.6583596, 10.5919942)",44.6583596,10.5919942,5.59467708727 km
285,IT001E04638311,42124,VIA FANTUZZI  4/A,09336350153,Gesta S.p.A.,Reggio Emilia,RE,"(44.7068599, 10.6192738)",44.7068599,10.6192738,1.35072162869 km
286,IT001E04638292,42124,VIA MOZART  30/A,09336350153,Gesta S.p.A.,Reggio Emilia,RE,"(44.6517572, 10.7746764)",44.6994444444,10.6327777778,12.4367149536 km
287,IT001E55016050,42123,VIA COMPAGNONI SN,09336350153,Gesta S.p.A.,Reggio Emilia,RE,"(44.68845109999999, 10.6121701)",44.6884511,10.6121701,2.03976994128 km
288,IT001E04599049,42124,VIA BELGIO  8/A,09336350153,Gesta S.p.A.,Reggio Emilia,RE,"(44.6973389, 10.6037084)",44.6973389,10.6037084,2.31587148761 km
289,IT001E04638254,42124,V.LE RISORGIMENTO 11A,09336350153,Gesta S.p.A.,Reggio Emilia,RE,"(44.6924422, 10.6374605)",44.6924422,10.6374605,0.862119730308 km
290,IT001E55163114,42123,VIA MANENTI,09336350153,Gesta S.p.A.,Reggio Emilia,RE,"(44.6749967, 10.6328605)",44.6749967,10.6328605,2.71677977899 km
291,IT001E04598874,42124,VIA MONTECHIARUG 1A,09336350153,Gesta S.p.A.,Reggio Emilia,RE,"(44.6906016, 10.6336371)",44.6906016,10.6336371,0.985026112412 km
292,IT001E04599225,42124,VIA ADUA 55P,09336350153,Gesta S.p.A.,Reggio Emilia,RE,"(44.7043155, 10.6502545)",44.7043155,10.6502545,1.48712459149 km
293,IT001E04598965,42124,VIA TOGLIATTI  50,09336350153,Gesta S.p.A.,Reggio Emilia,RE,"(44.6822932, 10.6432811)",44.6822932,10.6432811,2.07986515189 km
294,IT001E54748698,42124,VIA FOGLIANI  41,00310180351,Coopservice S.c.p.a.,Reggio Emilia,RE,"(44.709246, 10.6305313)",44.709246,10.6305313,1.10366219447 km
295,IT001E04599237,42124,VIA CAVALLOTTI  52/A,09336350153,Gesta S.p.A.,Reggio Emilia,RE,"(44.7194974, 10.6541569)",44.7194974,10.6541569,2.79928901733 km
296,IT001E04599183,42124,VIA MORANDI RODOLFO  1/A,09336350153,Gesta S.p.A.,Reggio Emilia,RE,"(44.7103115, 10.6366667)",44.7103115,10.6366667,1.24632049602 km
297,IT001E04599040,42124,VIA TARASSOV  17/A,09336350153,Gesta S.p.A.,Reggio Emilia,RE,"(44.6868811, 10.6205851)",44.6868811,10.6205851,1.69799700252 km
298,IT001E04638303,42124,VIA NOBEL  58/AX,09336350153,Gesta S.p.A.,Reggio Emilia,RE,"(46.1302898830005, 8.544640065000465)",44.6994444444,10.6327777778,228.029680442 km
299,IT001E49743309,42124,VIA RUZIKA,09336350153,Gesta S.p.A.,Reggio Emilia,RE,"(44.67105420000001, 10.63341)",44.6710542,10.63341,3.15528181093 km
300,IT001E48064689,42124,VIA MORO  45,09336350153,Gesta S.p.A.,Reggio Emilia,RE,"(44.73756849999999, 10.6441655)",44.7375685,10.6441655,4.33159792201 km
301,IT001E04599155,42124,VIA FOGLIANI  31/B,09336350153,Gesta S.p.A.,Reggio Emilia,RE,"(44.7084371, 10.6309277)",44.7084371,10.6309277,1.0100168504 km
302,IT001E04638350,42124,VIA CANTï¿½  18,09336350153,Gesta S.p.A.,Reggio Emilia,RE,"(46.1302898830005, 8.544640065000465)",44.6994444444,10.6327777778,228.029680442 km
303,IT001E48197024,42124,VIA CARNOT L.N. 3P,09336350153,Gesta S.p.A.,Reggio Emilia,RE,"(44.7321462, 10.6239274)",44.7321462,10.6239274,3.70106653033 km
304,IT001E04599373,42124,VIA PALAZZESCHI  10,09336350153,Gesta S.p.A.,Reggio Emilia,RE,"(44.6565123, 10.7606463)",44.6994444444,10.6327777778,11.2047755501 km
305,IT001E04599377,42124,VIA TROMBA  6/A,09336350153,Gesta S.p.A.,Reggio Emilia,RE,"(44.6558202, 10.7185734)",44.6558202,10.7185734,8.35316343547 km
306,IT001E04599140,42124,VIA DON MAGNANI V. 10A,09336350153,Gesta S.p.A.,Reggio Emilia,RE,"(44.70356950000001, 10.6212229)",44.7035695,10.6212229,1.0241047867 km
307,IT001E04598940,42124,VIA MART.DI CERVAROLO 2/2,09336350153,Gesta S.p.A.,Reggio Emilia,RE,"(44.6888933, 10.6343077)",44.6888933,10.6343077,1.17875901061 km
308,IT001E04638405,42124,VIA FREDDI  87/A,09336350153,Gesta S.p.A.,Reggio Emilia,RE,"(44.6645915, 10.5295448)",44.6645915,10.5295448,9.05463307053 km
309,IT001E49641238,42124,VIA COPERNICO (MARTIRI DI PIAZZA TIEN AN MEN),09336350153,Gesta S.p.A.,Reggio Emilia,RE,"(44.7112726, 10.6175747)",44.7112726,10.6175747,1.78306864592 km
310,IT001E04599151,42124,VIA FERRARONI  2/A,09336350153,Gesta S.p.A.,Reggio Emilia,RE,"(44.7173619, 10.5888235)",44.7173619,10.5888235,4.01211549979 km
311,IT001E00044013,42100,Via Roma  1,03147990273,Oviesse SpA,Reggio Emilia,RE,"(44.6977812, 10.6336423)",44.6977812,10.6336423,0.19712206637 km
312,IT001E00112661,42124,VIA MASACCIO  10/B,09336350153,Gesta S.p.A.,Reggio Emilia,RE,"(44.7345818, 10.6475876)",44.7345818,10.6475876,4.07719381666 km
313,IT001E04599338,42124,VIA CURIEL  2/A,09336350153,Gesta S.p.A.,Reggio Emilia,RE,"(44.6318795, 10.6821413)",44.6318795,10.6821413,8.46744974832 km
314,IT001E04599025,42124,VIA MORGAGNI  2/X,09336350153,Gesta S.p.A.,Reggio Emilia,RE,"(44.6744645, 10.5804294)",44.6744645,10.5804294,4.99274518044 km
315,IT001E00112655,42124,VIA GONZAGA  1/B,09336350153,Gesta S.p.A.,Reggio Emilia,RE,"(44.7142739, 10.6232285)",44.7142739,10.6232285,1.81339115572 km
316,IT001E04599014,42124,VIA MARTIRI DELLA BETTOLA  49/3,09336350153,Gesta S.p.A.,Reggio Emilia,RE,"(44.676915, 10.6163429)",44.676915,10.6163429,2.82230823711 km
317,IT001E00044141,42124,Via Due Canali 13/2,02654810361,GRANDI SALUMIFICI ITALIANI S.p.A.,Reggio Emilia,RE,"(44.710929, 10.625301)",44.710929,10.625301,1.40707812112 km
318,IT001E49632062,42124,VIA GARAGNANI,09336350153,Gesta S.p.A.,Reggio Emilia,RE,"(44.6797741, 10.6494979)",44.6797741,10.6494979,2.55633187778 km
319,IT001E00044019,42124,VIALE RISORGIMENTO  76/A,09336350153,Gesta S.p.A.,Reggio Emilia,RE,"(44.68721660000001, 10.6317268)",44.6872166,10.6317268,1.36138010796 km
320,IT001E04599250,42124,VIA FLEMING 48PX,09336350153,Gesta S.p.A.,Reggio Emilia,RE,"(46.1302898830005, 8.544640065000465)",44.6994444444,10.6327777778,228.029680442 km
321,IT001E04599312,42124,VIA SANT AMBROGIO  N. 8 P,09336350153,Gesta S.p.A.,Reggio Emilia,RE,"(44.6516199, 10.5748183)",44.6516199,10.5748183,7.0259562828 km
322,IT001E00044105,42124,VIA FOLLONI  6/A,09336350153,Gesta S.p.A.,Reggio Emilia,RE,"(44.7045544, 10.5978808)",44.7045544,10.5978808,2.82343376984 km
323,IT001E04638397,42124,VIA GIACOBINI  2/1,09336350153,Gesta S.p.A.,Reggio Emilia,RE,"(44.7261754, 10.5508449)",44.7261754,10.5508449,7.13963394912 km
324,IT001E04599085,42124,VIA NORVEGIA  8/P,09336350153,Gesta S.p.A.,Reggio Emilia,RE,"(44.7154615, 10.5770988)",44.7154615,10.5770988,4.75786764474 km
325,IT001E48147262,42122,SARDEGNA 5T,02517580920,Wind Tre S.p.a.u.s.,Reggio Emilia,RE,"(44.6928839, 10.6544798)",44.6928839,10.6544798,1.8682723289 km
326,IT001E04599306,42124,VIA GAMBUZZI 95/PA,09336350153,Gesta S.p.A.,Reggio Emilia,RE,"(46.1302898830005, 8.544640065000465)",44.6994444444,10.6327777778,228.029680442 km
327,IT001E49743312,42124,VIA DAVOLI,09336350153,Gesta S.p.A.,Reggio Emilia,RE,"(44.701306, 10.6250202)",44.701306,10.6250202,0.648708036204 km
328,IT001E04598893,42124,V.LE MNTE GRAPPA 36,09336350153,Gesta S.p.A.,Reggio Emilia,RE,"(44.69326, 10.63195)",44.69326,10.63195,0.690376440982 km
329,IT001E04599189,42124,VIA OCHINO 2A,09336350153,Gesta S.p.A.,Reggio Emilia,RE,"(44.7268108, 10.6190893)",44.7268108,10.6190893,3.22876125991 km
330,IT001E04598956,42124,VIA SAN MARCO 15/A,09336350153,Gesta S.p.A.,Reggio Emilia,RE,"(44.6552422, 10.6209199)",44.6552422,10.6209199,5.00116508676 km
331,IT001E48184977,42124,SVINCOLO TANG. NUOVA VIABILITï¿½ CORREGGIO SS468-SP29,09336350153,Gesta S.p.A.,Reggio Emilia,RE,"(46.1302898830005, 8.544640065000465)",44.6994444444,10.6327777778,228.029680442 km
332,IT001E04599023,42124,VIA MONTE PRAMPA  17,09336350153,Gesta S.p.A.,Reggio Emilia,RE,"(44.6853788, 10.6206044)",44.6853788,10.6206044,1.83692091967 km
333,IT001E04599355,42124,VIA CIGARINI  14/A,09336350153,Gesta S.p.A.,Reggio Emilia,RE,"(44.6522494, 10.7255525)",44.6522494,10.7255525,9.03426892098 km
334,IT001E55020755,42124,VIA MARTIRI PIAZZA TIEN AN MEN 2/5,09336350153,Gesta S.p.A.,Reggio Emilia,RE,"(44.7169047, 10.5896067)",44.7169047,10.5896067,3.93305267881 km
335,IT001E04598991,42124,VIA CANALINA  23,09336350153,Gesta S.p.A.,Reggio Emilia,RE,"(44.67392, 10.60896)",44.67392,10.60896,3.40740975927 km
336,IT001E04599379,42124,VIA BONINI RICC  25PX,09336350153,Gesta S.p.A.,Reggio Emilia,RE,"(46.1302898830005, 8.544640065000465)",44.6994444444,10.6327777778,228.029680442 km
337,IT001E04598998,42124,VIA RUGGERO  22,09336350153,Gesta S.p.A.,Reggio Emilia,RE,"(44.67628, 10.61615)",44.67628,10.61615,2.89202924992 km
338,IT001E04638383,42124,VIA MARX  89,09336350153,Gesta S.p.A.,Reggio Emilia,RE,"(44.7310692, 10.5758855)",44.7310692,10.5758855,5.71595011347 km
339,IT001E04638300,42124,VIA GRISENDI  13/P,09336350153,Gesta S.p.A.,Reggio Emilia,RE,"(44.7502532, 10.6009434)",44.7502532,10.6009434,6.18385903463 km
340,IT001E04599421,42124,VIA SPAGNI  55/A,09336350153,Gesta S.p.A.,Reggio Emilia,RE,"(44.7444189, 10.6780246)",44.7444189,10.6780246,6.15053935114 km
341,IT001E04598920,42124,VIA LEONARDO DA VINCI  1/A,09336350153,Gesta S.p.A.,Reggio Emilia,RE,"(44.6880033, 10.6333666)",44.6880033,10.6333666,1.27226264312 km
342,IT001E04599284,42124,VIA FERRI  57/A,09336350153,Gesta S.p.A.,Reggio Emilia,RE,"(44.7534566, 10.6177254)",44.7534566,10.6177254,6.11948667226 km
343,IT001E04638248,42124,CAPOL.FLUOR.DERIV. ENEL,09336350153,Gesta S.p.A.,Reggio Emilia,RE,,44.6994444444,10.6327777778,
344,IT001E04599427,42124,VIA SCARUFFI  35,09336350153,Gesta S.p.A.,Reggio Emilia,RE,"(44.6791699, 10.6703389)",44.6791699,10.6703389,3.73387738715 km
345,IT001E04598913,42124,VIA D. DA TORRICELLA  34P,09336350153,Gesta S.p.A.,Reggio Emilia,RE,"(44.6736233, 10.6433872)",44.6736233,10.6433872,2.99011754086 km
346,IT001E04599353,42124,VIA CARTESIO ,09336350153,Gesta S.p.A.,Reggio Emilia,RE,"(44.657424, 10.7491695)",44.6994444444,10.6327777778,10.3424476661 km
347,IT001E04599298,42124,VIA NOVE MARTIRI  11/A,09336350153,Gesta S.p.A.,Reggio Emilia,RE,"(44.7347192, 10.6092402)",44.7347192,10.6092402,4.34098435263 km
348,IT001E48041954,42124,VIA NOBEL  86,09336350153,Gesta S.p.A.,Reggio Emilia,RE,"(44.7195018, 10.5565899)",44.7195018,10.5565899,6.43574487204 km
349,IT001E40267500,42122,VIA E OSPIZIO 16,00204010243,Banca Popolare di Vicenza S.p.A.,Reggio Emilia,RE,"(44.69468819999999, 10.6422977)",44.6946882,10.6422977,0.921258852797 km
350,IT001E04598894,42124,PIAZZA SAN PROSPERO  5/1,09336350153,Gesta S.p.A.,Reggio Emilia,RE,"(44.6969179, 10.6322367)",44.6969179,10.6322367,0.284020890431 km
351,IT001E04599311,42124,VIA REPUBBLICA 18/A,09336350153,Gesta S.p.A.,Reggio Emilia,RE,"(44.6587252, 10.589445)",44.6587252,10.589445,5.68145878528 km
352,IT001E04638344,42124,VIA MADONNA DI CORTICELLA  12/A,09336350153,Gesta S.p.A.,Reggio Emilia,RE,"(44.6338398, 10.7510486)",44.6994444444,10.6327777778,11.8793183408 km
353,IT001E04598948,42124,VIA MURRI 2P,09336350153,Gesta S.p.A.,Reggio Emilia,RE,"(44.6866561, 10.6265221)",44.6866561,10.6265221,1.50514151722 km
354,IT001E00044080,42124,VIA GAGARIN  6/A,09336350153,Gesta S.p.A.,Reggio Emilia,RE,"(44.668338, 10.5991881)",44.668338,10.5991881,4.3635185587 km
355,IT001E04638250,42124,CAPOL.FLUOR.DERIV. ENEL,09336350153,Gesta S.p.A.,Reggio Emilia,RE,,44.6994444444,10.6327777778,
356,IT001E04599156,42124,VIA FOGLIANI  63/A,09336350153,Gesta S.p.A.,Reggio Emilia,RE,"(44.7090421, 10.6303263)",44.7090421,10.6303263,1.08409999712 km
357,IT001E04599440,42124,VIA PALLADIO  97/P,09336350153,Gesta S.p.A.,Reggio Emilia,RE,"(44.6550898, 10.7929596)",44.6994444444,10.6327777778,13.6234254977 km
358,IT001E04599361,42124,VIA MONDAINI  2/A,09336350153,Gesta S.p.A.,Reggio Emilia,RE,"(44.65737439999999, 10.7589226)",44.6994444444,10.6327777778,11.0402945367 km
359,IT001E49655076,42124,VIA FORNACIARI,09336350153,Gesta S.p.A.,Reggio Emilia,RE,"(44.6962281, 10.6309955)",44.6962281,10.6309955,0.384322527038 km
360,IT001E04638338,42124,VIA IBATICI  6/A,09336350153,Gesta S.p.A.,Reggio Emilia,RE,"(44.6501014, 10.744709)",44.6994444444,10.6327777778,10.4324241021 km
361,IT001E04599015,42124,VIA MARTIRI DELLA BETTOLA  61/C,09336350153,Gesta S.p.A.,Reggio Emilia,RE,"(44.6710918, 10.606255)",44.6710918,10.606255,3.78788835903 km
362,IT001E04599170,42124,VIA GUTENBERG G. 11P,09336350153,Gesta S.p.A.,Reggio Emilia,RE,"(44.71005359999999, 10.6225527)",44.7100536,10.6225527,1.43059046866 km
363,IT001E04599442,42124,VIA PATTACINI DON PX,09336350153,Gesta S.p.A.,Reggio Emilia,RE,,44.6994444444,10.6327777778,
364,IT001E04599086,42124,VIA PERTINI  36/P,09336350153,Gesta S.p.A.,Reggio Emilia,RE,"(44.7052882, 10.5890636)",44.7052882,10.5890636,3.52485813124 km
365,IT001E04598911,42124,VIA CUGINI 55/1,09336350153,Gesta S.p.A.,Reggio Emilia,RE,"(44.6732392, 10.6514897)",44.6732392,10.6514897,3.26812855774 km
366,IT001E04599129,42124,VIA F.LLI CERVI  98,09336350153,Gesta S.p.A.,Reggio Emilia,RE,"(44.7099846, 10.5982259)",44.7099846,10.5982259,2.97825328578 km
367,IT001E00044210,42122,V KENNEDY 31G,04850790967,Gruppo Coin S.p.A.,Reggio Emilia,RE,"(44.7096291, 10.607119)",44.7096291,10.607119,2.3272265593 km
368,IT001E04599398,42124,VIA MARMIROLI  1/P,09336350153,Gesta S.p.A.,Reggio Emilia,RE,"(44.8450559, 10.76511)",44.6994444444,10.6327777778,19.2761059857 km
369,IT001E04599213,42124,VIA VACONDIO  3A,09336350153,Gesta S.p.A.,Reggio Emilia,RE,"(44.7114604, 10.6249392)",44.7114604,10.6249392,1.47271283889 km
370,IT001E04598892,42124,V.LE MNTE GRAPPA 31/A,09336350153,Gesta S.p.A.,Reggio Emilia,RE,"(44.69514179999999, 10.6395396)",44.6951418,10.6395396,0.718229396813 km
371,IT001E04598929,42124,VIA MART.DI CERVAROLO  87/P,09336350153,Gesta S.p.A.,Reggio Emilia,RE,"(44.6633724, 10.6445616)",44.6633724,10.6445616,4.11595739809 km
372,IT001E04599330,42124,VIA MAZZELLI  42/A,09336350153,Gesta S.p.A.,Reggio Emilia,RE,"(44.6481778, 10.6811712)",44.6481778,10.6811712,6.86881638127 km
373,IT001E48385320,42124,LARGO BIAGI,09336350153,Gesta S.p.A.,Reggio Emilia,RE,"(44.7039285, 10.6560572)",44.7039285,10.6560572,1.91111308785 km
374,IT001E04599008,42124,VIA GUALTIERI 2/A,09336350153,Gesta S.p.A.,Reggio Emilia,RE,"(44.6673852, 10.599358)",44.6673852,10.599358,4.43982660704 km
375,IT001E04599340,42124,VIA ASSEVERATI  2/PX,09336350153,Gesta S.p.A.,Reggio Emilia,RE,"(46.1302898830005, 8.544640065000465)",44.6994444444,10.6327777778,228.029680442 km
376,IT001E04638244,42124,CAPOL.FLUOR.DERIV. ENEL,09336350153,Gesta S.p.A.,Reggio Emilia,RE,,44.6994444444,10.6327777778,
377,IT001E04599161,42124,VIA KENNEDY  SN,09336350153,Gesta S.p.A.,Reggio Emilia,RE,"(44.7106937, 10.6054893)",44.7106937,10.6054893,2.49792630106 km
378,IT001E04599399,42124,VIA MEGLIOLI  3/PX,09336350153,Gesta S.p.A.,Reggio Emilia,RE,"(46.1302898830005, 8.544640065000465)",44.6994444444,10.6327777778,228.029680442 km
379,IT001E04598946,42124,VIA MONTI  79P,09336350153,Gesta S.p.A.,Reggio Emilia,RE,"(44.667642, 10.6512321)",44.667642,10.6512321,3.82493665433 km
380,IT001E04638260,42124,VIA TOLSTOI 7/2,09336350153,Gesta S.p.A.,Reggio Emilia,RE,"(44.6640463, 10.6153191)",44.6640463,10.6153191,4.17006147882 km
381,IT001E04599188,42124,VIA NORMANDIA  18/A,09336350153,Gesta S.p.A.,Reggio Emilia,RE,"(44.7230241, 10.593729)",44.7230241,10.593729,4.05471783295 km
382,IT001E49702649,42124,VIA ROCHDALE  SNC,00310180351,Coopservice S.c.p.a.,Reggio Emilia,RE,"(44.6956289, 10.6396474)",44.6956289,10.6396474,0.690108894772 km
383,IT001E04599473,42124,VIA AZZARRI DEGLI  48/A,09336350153,Gesta S.p.A.,Reggio Emilia,RE,"(44.7062851, 10.6914011)",44.7062851,10.6914011,4.70786871355 km
384,IT001E04598887,42124,VIA FARINI  10A,09336350153,Gesta S.p.A.,Reggio Emilia,RE,"(44.6963438, 10.6293339)",44.6963438,10.6293339,0.439580598028 km
385,IT001E55119870,42123,VIA A. VOLTA SNC,09336350153,Gesta S.p.A.,Reggio Emilia,RE,"(44.696504, 10.459317)",44.6994444444,10.6327777778,13.75237478 km
386,IT001E48328123,42123,VIA DEL CASINAZZO 2P,09336350153,Gesta S.p.A.,Reggio Emilia,RE,"(44.6728813, 10.5353947)",44.6728813,10.5353947,8.2652328195 km
387,IT001E04638317,42124,VIA FRANK  68/A,09336350153,Gesta S.p.A.,Reggio Emilia,RE,"(44.6363612, 10.6785099)",44.6363612,10.6785099,7.89267701001 km
388,IT001E04598853,42124,VIA PARISOLI  37/A,09336350153,Gesta S.p.A.,Reggio Emilia,RE,"(44.6784477, 10.6543736)",44.6784477,10.6543736,2.89395205607 km
389,IT001E04599413,42124,VIA SANT AMBROGIO  21/A,09336350153,Gesta S.p.A.,Reggio Emilia,RE,"(44.6562336, 10.5822957)",44.6562336,10.5822957,6.25126287852 km
390,IT001E04598879,42124,V.LE RISORGIMENTO 37/A,09336350153,Gesta S.p.A.,Reggio Emilia,RE,"(44.6896909, 10.6341299)",44.6896909,10.6341299,1.0891564906 km
391,IT001E04599362,42124,VIA MONVISO  2/A,09336350153,Gesta S.p.A.,Reggio Emilia,RE,"(44.659386, 10.7412259)",44.659386,10.7412259,9.68232435932 km
392,IT001E04599107,42124,VIA MAZZINI  2/A,09336350153,Gesta S.p.A.,Reggio Emilia,RE,"(44.7008946, 10.6274377)",44.7008946,10.6274377,0.452879679753 km
393,IT001E54791851,42124,VIA OLIMPIA 1X,09336350153,Gesta S.p.A.,Reggio Emilia,RE,"(44.69332139999999, 10.6425607)",44.6933214,10.6425607,1.03162579569 km
394,IT001E04599072,42124,VIA DORSO  58/P,09336350153,Gesta S.p.A.,Reggio Emilia,RE,"(44.701757, 10.5817316)",44.701757,10.5817316,4.05388880757 km
395,IT001E04599203,42124,VIA RUINI MEUCCI 6 PX,09336350153,Gesta S.p.A.,Reggio Emilia,RE,"(46.1302898830005, 8.544640065000465)",44.6994444444,10.6327777778,228.029680442 km
396,IT001E04599036,42124,VIA F.LLI ROSSELLI  81/2,09336350153,Gesta S.p.A.,Reggio Emilia,RE,"(44.6776004, 10.5931611)",44.6776004,10.5931611,3.96930079069 km
397,IT001E55019989,42123,VIA CAMPANIA  SN,09336350153,Gesta S.p.A.,Reggio Emilia,RE,"(44.8776357, 10.0731641)",44.6994444444,10.6327777778,48.511164537 km
398,IT001E04638310,42124,VIA CILLONI  14,09336350153,Gesta S.p.A.,Reggio Emilia,RE,"(44.7319185, 10.6966281)",44.7319185,10.6966281,6.21439244275 km
399,IT001E04598889,42124,VIA GIORGIONE  2/C,09336350153,Gesta S.p.A.,Reggio Emilia,RE,"(44.6957945, 10.6378536)",44.6957945,10.6378536,0.571287041241 km
400,IT001E48020941,42124,VIA VICO 9 - VILLA CELLA,09336350153,Gesta S.p.A.,Reggio Emilia,RE,"(44.7280845, 10.5463968)",44.7280845,10.5463968,7.54845196896 km
401,IT001E04599277,42124,VIA VERTOIBA  27/1,09336350153,Gesta S.p.A.,Reggio Emilia,RE,"(44.7052521, 10.6712356)",44.7052521,10.6712356,3.11551458874 km
402,IT001E55027293,42122,VIA BIGI  2,09336350153,Gesta S.p.A.,Reggio Emilia,RE,"(44.7471916, 10.6930753)",44.7471916,10.6930753,7.13960224938 km
403,IT001E04598873,42124,VIA MED.ORO RESIST.6C,09336350153,Gesta S.p.A.,Reggio Emilia,RE,"(46.1302898830005, 8.544640065000465)",44.6994444444,10.6327777778,228.029680442 km
404,IT001E04599114,42124,VIA G. BOLOGNESI  2/A,09336350153,Gesta S.p.A.,Reggio Emilia,RE,"(44.704259, 10.6244703)",44.704259,10.6244703,0.848379427206 km
405,IT001E04638284,42124,VIA RINALDI 31/A,09336350153,Gesta S.p.A.,Reggio Emilia,RE,"(44.7262746, 10.6056734)",44.7262746,10.6056734,3.67455144311 km
406,IT001E04598896,42124,VIA TOSCHI  27/1,09336350153,Gesta S.p.A.,Reggio Emilia,RE,"(44.6955728, 10.6348595)",44.6955728,10.6348595,0.4607937055 km
407,IT001E04599469,42124,VIA NEWTON N. 11 PX,09336350153,Gesta S.p.A.,Reggio Emilia,RE,"(51.93286002400049, 4.4690700200004585)",44.6994444444,10.6327777778,924.385805362 km
408,IT001E04599290,42124,VIA LABRIOLA  1/A,09336350153,Gesta S.p.A.,Reggio Emilia,RE,"(44.7401829, 10.613401)",44.7401829,10.613401,4.78034275007 km
409,IT001E04598839,42124,VIA LEPIDO 4/A,09336350153,Gesta S.p.A.,Reggio Emilia,RE,"(44.6902852, 10.6507037)",44.6902852,10.6507037,1.74782323783 km
410,IT001E48013586,42124,VIA GONZAGA  62,09336350153,Gesta S.p.A.,Reggio Emilia,RE,"(44.7284985, 10.6175701)",44.7284985,10.6175701,3.44621234217 km
411,IT001E04598831,42124,VIA IBARURRI 2P,09336350153,Gesta S.p.A.,Reggio Emilia,RE,"(44.6831015, 10.658921)",44.6831015,10.658921,2.75552757152 km
412,IT001E00044011,42124,VIALE PIAVE  8/A,09336350153,Gesta S.p.A.,Reggio Emilia,RE,"(44.697033, 10.6402997)",44.697033,10.6402997,0.65364059869 km
413,IT001E04638389,42124,VIA CASTELLO  5/1,09336350153,Gesta S.p.A.,Reggio Emilia,RE,"(44.48530299999999, 10.683218)",44.6994444444,10.6327777778,24.1309124427 km
414,IT001E04599234,42124,VIA CADOPPI C.2/P,09336350153,Gesta S.p.A.,Reggio Emilia,RE,"(44.708913, 10.6416106)",44.708913,10.6416106,1.26378424786 km
415,IT001E04598829,42124,VIA GATTALUPA 58/A,09336350153,Gesta S.p.A.,Reggio Emilia,RE,"(44.6782183, 10.6669552)",44.6782183,10.6669552,3.59224876816 km
416,IT001E04599269,42124,VIA REGINA MARGHERITA  30APX,09336350153,Gesta S.p.A.,Reggio Emilia,RE,"(46.1302898830005, 8.544640065000465)",44.6994444444,10.6327777778,228.029680442 km
417,IT001E04093955,42124,GORIZIA 41A,02517580920,Wind Tre S.p.a.u.s.,Reggio Emilia,RE,"(44.6969472, 10.6120964)",44.6969472,10.6120964,1.66252346154 km
418,IT001E04599081,42124,VIA MASCAGNI  39/A,09336350153,Gesta S.p.A.,Reggio Emilia,RE,"(44.70372039999999, 10.6079119)",44.7037204,10.6079119,2.02722138 km
419,IT001E04598851,42124,VIA GIOVANNI XXIII  1,09336350153,Gesta S.p.A.,Reggio Emilia,RE,"(44.7466651, 10.6360001)",44.7466651,10.6360001,5.25366616401 km
420,IT001E49597339,42123,VIA TENNI,09336350153,Gesta S.p.A.,Reggio Emilia,RE,"(44.6696239, 10.5974146)",44.6696239,10.5974146,4.34064949426 km
421,IT001E04598833,42124,VIA LAMBRAKIS  21/A,09336350153,Gesta S.p.A.,Reggio Emilia,RE,"(44.675102, 10.653435)",44.675102,10.653435,3.16213751565 km
422,IT001E04599303,42124,VIA ZAMBONI 2/A,09336350153,Gesta S.p.A.,Reggio Emilia,RE,"(44.7467767, 10.6172555)",44.7467767,10.6172555,5.4017089982 km
423,IT001E00044033,42124,PIAZZALE TRICOLORE,09336350153,Gesta S.p.A.,Reggio Emilia,RE,"(44.6951033, 10.6410087)",44.6951033,10.6410087,0.811379074646 km
424,IT001E49707494,42124,VIA D ISRAELI,09336350153,Gesta S.p.A.,Reggio Emilia,RE,"(44.7179786, 10.5799994)",44.7179786,10.5799994,4.66206647962 km
425,IT001E04599335,42124,VIA VARINI  1/A,09336350153,Gesta S.p.A.,Reggio Emilia,RE,"(44.65183529999999, 10.6742344)",44.6518353,10.6742344,6.22859712837 km
426,IT001E55121016,42123,VIA DEI COMBATTENTI,09336350153,Gesta S.p.A.,Reggio Emilia,RE,"(44.6612827, 10.5914865)",44.6612827,10.5914865,5.35735595655 km
427,IT001E04638406,42124,VIA FREDDI  16,09336350153,Gesta S.p.A.,Reggio Emilia,RE,"(44.9393036, 10.7335488)",44.6994444444,10.6327777778,27.8212641363 km
428,IT001E04599470,42124,VIA NEWTON  48A,09336350153,Gesta S.p.A.,Reggio Emilia,RE,"(46.1302898830005, 8.544640065000465)",44.6994444444,10.6327777778,228.029680442 km
429,IT001E04599009,42124,VIA GUINIZELLI G. 35A,09336350153,Gesta S.p.A.,Reggio Emilia,RE,"(46.1302898830005, 8.544640065000465)",44.6994444444,10.6327777778,228.029680442 km
430,IT001E04599493,42124,VIA SAN PANTALEONE  26,09336350153,Gesta S.p.A.,Reggio Emilia,RE,"(46.1302898830005, 8.544640065000465)",44.6994444444,10.6327777778,228.029680442 km
431,IT001E04598914,42124,VIA FRANZINI  1/A,09336350153,Gesta S.p.A.,Reggio Emilia,RE,"(46.1302898830005, 8.544640065000465)",44.6994444444,10.6327777778,228.029680442 km
432,IT001E04599119,42124,VIA BRODOLINI  91,09336350153,Gesta S.p.A.,Reggio Emilia,RE,"(46.1302898830005, 8.544640065000465)",44.6994444444,10.6327777778,228.029680442 km
433,IT001E04598950,42124,VIA PARIATI  11/A,09336350153,Gesta S.p.A.,Reggio Emilia,RE,"(46.1302898830005, 8.544640065000465)",44.6994444444,10.6327777778,228.029680442 km
434,IT001E04598969,42124,VIA TOTï¿½  9/A,09336350153,Gesta S.p.A.,Reggio Emilia,RE,"(46.1302898830005, 8.544640065000465)",44.6994444444,10.6327777778,228.029680442 km
435,IT001E54744801,42124,VIA MARSILIO DA PADOVA 12/A,09336350153,Gesta S.p.A.,Reggio Emilia,RE,"(46.1302898830005, 8.544640065000465)",44.6994444444,10.6327777778,228.029680442 km
436,IT001E04599502,42124,VIA SOTTILI  21A,09336350153,Gesta S.p.A.,Reggio Emilia,RE,"(46.1302898830005, 8.544640065000465)",44.6994444444,10.6327777778,228.029680442 km
437,IT001E04638291,42124,VIA MOZART  1/P,09336350153,Gesta S.p.A.,Reggio Emilia,RE,"(46.1302898830005, 8.544640065000465)",44.6994444444,10.6327777778,228.029680442 km
438,IT001E04638376,42124,VIA SPAGNI  48/A,09336350153,Gesta S.p.A.,Reggio Emilia,RE,"(46.1302898830005, 8.544640065000465)",44.6994444444,10.6327777778,228.029680442 km
439,IT001E04599471,42124,VIA AZZARRI DEGLI 33/A,09336350153,Gesta S.p.A.,Reggio Emilia,RE,"(46.1302898830005, 8.544640065000465)",44.6994444444,10.6327777778,228.029680442 km
440,IT001E04599238,42124,VIA CHIONSO 32A,09336350153,Gesta S.p.A.,Reggio Emilia,RE,"(46.1302898830005, 8.544640065000465)",44.6994444444,10.6327777778,228.029680442 km
441,IT001E04638369,42124,VIA TIBBIA  1,09336350153,Gesta S.p.A.,Reggio Emilia,RE,"(46.1302898830005, 8.544640065000465)",44.6994444444,10.6327777778,228.029680442 km
442,IT001E51179793,42124,VIA SAN BIAGIO  20,09336350153,Gesta S.p.A.,Reggio Emilia,RE,"(46.1302898830005, 8.544640065000465)",44.6994444444,10.6327777778,228.029680442 km
443,IT001E48002687,42124,VIA MADRE TERESA DI CALCUTTA,09336350153,Gesta S.p.A.,Reggio Emilia,RE,"(44.7484648, 10.6330201)",44.7484648,10.6330201,5.44748864854 km
444,IT001E04638290,42124,VIA GRAMSCI  PX,09336350153,Gesta S.p.A.,Reggio Emilia,RE,,44.6994444444,10.6327777778,
445,IT001E04599042,42124,VIA D. ZANICHELLI  1/A,09336350153,Gesta S.p.A.,Reggio Emilia,RE,"(44.6976973, 10.618179)",44.6976973,10.618179,1.17326255224 km
446,IT001E04638242,42124,VIA COMPARONI  22/A,09336350153,Gesta S.p.A.,Reggio Emilia,RE,"(44.6611957, 10.6769991)",44.6611957,10.6769991,5.50984148513 km
447,IT001E04599489,42124,VIA JUGOSLAVIA  16/A,09336350153,Gesta S.p.A.,Reggio Emilia,RE,"(44.6548484, 10.526275)",44.6548484,10.526275,9.79121667597 km
448,IT001E48169358,42124,VIA STROZZI  15,09336350153,Gesta S.p.A.,Reggio Emilia,RE,"(44.653514, 10.5700043)",44.653514,10.5700043,7.12912264827 km
449,IT001E48854059,42124,VIA GHIARDA  7/1,09336350153,Gesta S.p.A.,Reggio Emilia,RE,"(44.6617425, 10.5843153)",44.6617425,10.5843153,5.68474218903 km
450,IT001E04638357,42124,VIA CAMPANIA  1,09336350153,Gesta S.p.A.,Reggio Emilia,RE,"(44.6657109, 10.6173715)",44.6657109,10.6173715,3.94262931033 km
451,IT001E48007244,42124,VIA BERGONZI,09336350153,Gesta S.p.A.,Reggio Emilia,RE,"(44.6849984, 10.6145066)",44.6849984,10.6145066,2.16210475857 km
452,IT001E04638380,42124,VIA ANCINI  1/A,09336350153,Gesta S.p.A.,Reggio Emilia,RE,"(44.7264473, 10.5717154)",44.7264473,10.5717154,5.6935007204 km
453,IT001E04599351,42124,VIA BAGNOLI  14/A,09336350153,Gesta S.p.A.,Reggio Emilia,RE,"(46.1302898830005, 8.544640065000465)",44.6994444444,10.6327777778,228.029680442 km
454,IT001E04598876,42124,VIA NOVELLI  11/A,09336350153,Gesta S.p.A.,Reggio Emilia,RE,"(46.1302898830005, 8.544640065000465)",44.6994444444,10.6327777778,228.029680442 km
455,IT001E04638282,42124,VIA MARSILIO DA PADOVA 29/A,09336350153,Gesta S.p.A.,Reggio Emilia,RE,"(46.1302898830005, 8.544640065000465)",44.6994444444,10.6327777778,228.029680442 km
456,IT001E49699951,42124,VIA BRUNO GIORDANO,09336350153,Gesta S.p.A.,Reggio Emilia,RE,"(44.7383973299387, 10.5161717229693)",44.6994444444,10.6327777778,10.20264862 km
457,IT001E04599143,42124,VIA FANTI  12/A,09336350153,Gesta S.p.A.,Reggio Emilia,RE,"(46.1302898830005, 8.544640065000465)",44.6994444444,10.6327777778,228.029680442 km
458,IT001E04599479,42124,VIA GRAZIOLI DON N. 1PX,09336350153,Gesta S.p.A.,Reggio Emilia,RE,"(46.1302898830005, 8.544640065000465)",44.6994444444,10.6327777778,228.029680442 km
459,IT001E04599429,42124,VIA AFFAROSI N. 6,09336350153,Gesta S.p.A.,Reggio Emilia,RE,"(46.1302898830005, 8.544640065000465)",44.6994444444,10.6327777778,228.029680442 km
460,IT001E04598905,42124,VIA CARO  1/A,09336350153,Gesta S.p.A.,Reggio Emilia,RE,"(46.1302898830005, 8.544640065000465)",44.6994444444,10.6327777778,228.029680442 km
461,IT001E48112768,42124,VIA DAOLIO AUGUSTO,09336350153,Gesta S.p.A.,Reggio Emilia,RE,"(44.7424473306027, 10.693341751997)",44.7424473306,10.693341752,6.77208347931 km
462,IT001E04599069,42124,VIA ALCIDE CERVI  3/A,09336350153,Gesta S.p.A.,Reggio Emilia,RE,"(46.1302898830005, 8.544640065000465)",44.6994444444,10.6327777778,228.029680442 km
463,IT001E04598997,42124,VIA DARWIN  2/A,09336350153,Gesta S.p.A.,Reggio Emilia,RE,"(46.1302898830005, 8.544640065000465)",44.6994444444,10.6327777778,228.029680442 km
464,IT001E04638388,42124,VIA CASTELLO  3/A,09336350153,Gesta S.p.A.,Reggio Emilia,RE,"(46.1302898830005, 8.544640065000465)",44.6994444444,10.6327777778,228.029680442 km
465,IT001E04599256,42124,VIA MANODORI  7/A,09336350153,Gesta S.p.A.,Reggio Emilia,RE,"(46.1302898830005, 8.544640065000465)",44.6994444444,10.6327777778,228.029680442 km
466,IT001E04599369,42124,VIA BAGNI  63PX,09336350153,Gesta S.p.A.,Reggio Emilia,RE,"(46.1302898830005, 8.544640065000465)",44.6994444444,10.6327777778,228.029680442 km
467,IT001E04599111,42124,VIA BARI 2/A,09336350153,Gesta S.p.A.,Reggio Emilia,RE,"(46.1302898830005, 8.544640065000465)",44.6994444444,10.6327777778,228.029680442 km
468,IT001E00044058,42100,Viale Timavo 35,01255720169,Esselunga S.p.A.,Reggio Emilia,RE,"(46.07718013600049, -0.1947699599995758)",44.6994444444,10.6327777778,860.933697208 km
469,IT001E04638362,42124,VIA TASSONI  158/A,09336350153,Gesta S.p.A.,Reggio Emilia,RE,"(44.65000269999999, 10.6088205)",44.6500027,10.6088205,5.81335893219 km
470,IT001E04599490,42124,VIA POLONIA  32/A,09336350153,Gesta S.p.A.,Reggio Emilia,RE,"(44.6564223, 10.5253804)",44.6564223,10.5253804,9.76555233125 km
471,IT001E04598826,42124,VIA COMPARONI  2,09336350153,Gesta S.p.A.,Reggio Emilia,RE,"(44.6788561, 10.683363)",44.6788561,10.683363,4.61676211734 km
472,IT001E04011617,42121,ERITREA 1A,02517580920,Wind Tre S.p.a.u.s.,Reggio Emilia,RE,"(44.6976483, 10.6413874)",44.6976483,10.6413874,0.710983639353 km
473,IT001E04599388,42124,VIA VIVIANI R. N. 2 PX,09336350153,Gesta S.p.A.,Reggio Emilia,RE,"(46.1302898830005, 8.544640065000465)",44.6994444444,10.6327777778,228.029680442 km
474,IT001E04599485,42124,VIA FREDDI  158/AX,09336350153,Gesta S.p.A.,Reggio Emilia,RE,"(46.1302898830005, 8.544640065000465)",44.6994444444,10.6327777778,228.029680442 km
475,IT001E04598970,42124,VIALE UMBERTO 1ï¿½  47/3,09336350153,Gesta S.p.A.,Reggio Emilia,RE,"(46.07718013600049, -0.1947699599995758)",44.6994444444,10.6327777778,860.933697208 km
476,IT001E49535772,42124,VIA GHISLERI,09336350153,Gesta S.p.A.,Reggio Emilia,RE,"(44.7206773, 10.5810042)",44.7206773,10.5810042,4.73282697736 km
477,IT001E04638299,42124,VIA FERRI  58,09336350153,Gesta S.p.A.,Reggio Emilia,RE,"(44.7520797, 10.6172699)",44.7520797,10.6172699,5.97679958405 km
478,IT001E04599154,42124,VIA FILZI  7,09336350153,Gesta S.p.A.,Reggio Emilia,RE,"(46.1302898830005, 8.544640065000465)",44.6994444444,10.6327777778,228.029680442 km
479,IT001E04599401,42124,VIA MONTE EVEREST N. 6/3,09336350153,Gesta S.p.A.,Reggio Emilia,RE,"(46.1302898830005, 8.544640065000465)",44.6994444444,10.6327777778,228.029680442 km
480,IT001E48113123,42124,SVINCOLO SS468R VIABILITï¿½ CORREGGIO,09336350153,Gesta S.p.A.,Reggio Emilia,RE,"(44.76066216400045, 10.744998953000447)",44.6994444444,10.6327777778,11.1940574849 km
481,IT001E49663786,42124,VIA RAVï¿½,09336350153,Gesta S.p.A.,Reggio Emilia,RE,"(44.6978446, 10.6304958)",44.6978446,10.6304958,0.253614292975 km
482,IT001E04599491,42124,VIA SAN BARTOLOMEO  37/A,09336350153,Gesta S.p.A.,Reggio Emilia,RE,"(46.1302898830005, 8.544640065000465)",44.6994444444,10.6327777778,228.029680442 km
483,IT001E04638341,42124,VIA LASAGNI  6/A,09336350153,Gesta S.p.A.,Reggio Emilia,RE,"(46.1302898830005, 8.544640065000465)",44.6994444444,10.6327777778,228.029680442 km
484,IT001E04599029,42124,VIA PIERO DELLA FRANCESCA  8,09336350153,Gesta S.p.A.,Reggio Emilia,RE,"(46.1302898830005, 8.544640065000465)",44.6994444444,10.6327777778,228.029680442 km
485,IT001E54750467,42124,VIA TITO LIVIO  8/A,09336350153,Gesta S.p.A.,Reggio Emilia,RE,"(46.1302898830005, 8.544640065000465)",44.6994444444,10.6327777778,228.029680442 km
486,IT001E04599422,42124,VIA ABRUZZO  6/A,09336350153,Gesta S.p.A.,Reggio Emilia,RE,"(46.1302898830005, 8.544640065000465)",44.6994444444,10.6327777778,228.029680442 km
487,IT001E04635297,42121,FORNACIARI L. 3,02517580920,Wind Tre S.p.a.u.s.,Reggio Emilia,RE,"(46.1302898830005, 8.544640065000465)",44.6994444444,10.6327777778,228.029680442 km
488,IT001E48208762,42124,VIA DIVISIONE ACQUI  4,00310180351,Coopservice S.c.p.a.,Reggio Emilia,RE,"(46.1302898830005, 8.544640065000465)",44.6994444444,10.6327777778,228.029680442 km
489,IT001E04638241,42124,VIA COMPARONI  27/A,09336350153,Gesta S.p.A.,Reggio Emilia,RE,"(46.1302898830005, 8.544640065000465)",44.6994444444,10.6327777778,228.029680442 km
490,IT001E49736848,42124,VIA S. GALLO,09336350153,Gesta S.p.A.,Reggio Emilia,RE,,44.6994444444,10.6327777778,
491,IT001E04599472,42124,VIA AZZARRI DEGLI 65/A,09336350153,Gesta S.p.A.,Reggio Emilia,RE,"(46.1302898830005, 8.544640065000465)",44.6994444444,10.6327777778,228.029680442 km
492,IT001E04638313,42124,VIA W. SALTINI  14/A,09336350153,Gesta S.p.A.,Reggio Emilia,RE,"(46.1302898830005, 8.544640065000465)",44.6994444444,10.6327777778,228.029680442 km
493,IT001E04599462,42124,VIA PORTOGALLO  8/A,09336350153,Gesta S.p.A.,Reggio Emilia,RE,"(44.7257854, 10.5460665)",44.7257854,10.5460665,7.46853140096 km
494,IT001E04599048,42124,VIA F.LLI BANDIERA  5/A,09336350153,Gesta S.p.A.,Reggio Emilia,RE,"(44.7090364, 10.5958373)",44.7090364,10.5958373,3.11559472369 km
495,IT001E04598990,42124,VIA BISMANTOVA 18,09336350153,Gesta S.p.A.,Reggio Emilia,RE,"(44.6841314, 10.6198114)",44.6841314,10.6198114,1.98799279041 km
496,IT001E04599024,42124,VIA MORGAGNI 3P,09336350153,Gesta S.p.A.,Reggio Emilia,RE,"(44.67748, 10.57613)",44.67748,10.57613,5.11110370624 km
497,IT001E04599198,42124,V.LE REGINA ELENA 4/A,09336350153,Gesta S.p.A.,Reggio Emilia,RE,"(44.7037033, 10.6266824)",44.7037033,10.6266824,0.676283472334 km
498,IT001E04598847,42124,VIA MONTI URALI  32X,09336350153,Gesta S.p.A.,Reggio Emilia,RE,"(44.6817745, 10.6663844)",44.6817745,10.6663844,3.30946356069 km
499,IT001E04599103,42124,V.LE ISONZO 9/E,09336350153,Gesta S.p.A.,Reggio Emilia,RE,"(44.7025526, 10.6250519)",44.7025526,10.6250519,0.703019044704 km
500,IT001E04598872,42124,VIA FOSSE ARDEATINE  20/A,09336350153,Gesta S.p.A.,Reggio Emilia,RE,"(44.685046, 10.6383763)",44.685046,10.6383763,1.66044115847 km
501,IT001E04638346,42124,VIA SASSETTO  6,09336350153,Gesta S.p.A.,Reggio Emilia,RE,"(44.6525803, 10.7305992)",44.6525803,10.7305992,9.34240880163 km
502,IT001E04599464,42124,VIA VERONESI  1/A,09336350153,Gesta S.p.A.,Reggio Emilia,RE,"(44.725196, 10.5540505)",44.725196,10.5540505,6.86342077438 km
503,IT001E04599331,42124,VIA MAZZELLI  10/1,09336350153,Gesta S.p.A.,Reggio Emilia,RE,"(46.1302898830005, 8.544640065000465)",44.6994444444,10.6327777778,228.029680442 km
504,IT001E54778870,42124,VIA GUASCO 12/A,09336350153,Gesta S.p.A.,Reggio Emilia,RE,"(46.1302898830005, 8.544640065000465)",44.6994444444,10.6327777778,228.029680442 km
505,IT001E04599436,42124,VIA RINALDI  103,09336350153,Gesta S.p.A.,Reggio Emilia,RE,"(46.1302898830005, 8.544640065000465)",44.6994444444,10.6327777778,228.029680442 km
506,IT001E04599397,42124,VIA JUVARA  7/A,09336350153,Gesta S.p.A.,Reggio Emilia,RE,"(46.1302898830005, 8.544640065000465)",44.6994444444,10.6327777778,228.029680442 km
507,IT001E49540421,42124,VIA SPARTACO,09336350153,Gesta S.p.A.,Reggio Emilia,RE,"(44.7251873277744, 10.5556617294393)",44.7251873278,10.5556617294,6.7471752001 km
508,IT001E04598971,42124,VIALE UMBERTO 1ï¿½  49/A,09336350153,Gesta S.p.A.,Reggio Emilia,RE,"(46.07718013600049, -0.1947699599995758)",44.6994444444,10.6327777778,860.933697208 km
509,IT001E04599087,42124,VIA PRAGA M.   2/3P,09336350153,Gesta S.p.A.,Reggio Emilia,RE,"(46.1302898830005, 8.544640065000465)",44.6994444444,10.6327777778,228.029680442 km
510,IT001E04598917,42124,VIA GRAN SASSO 25/A,09336350153,Gesta S.p.A.,Reggio Emilia,RE,"(46.1302898830005, 8.544640065000465)",44.6994444444,10.6327777778,228.029680442 km
511,IT001E04638301,42124,VIA MISELLI 15/A,09336350153,Gesta S.p.A.,Reggio Emilia,RE,"(46.1302898830005, 8.544640065000465)",44.6994444444,10.6327777778,228.029680442 km
512,IT001E04599372,42124,VIA PACE  2/A,09336350153,Gesta S.p.A.,Reggio Emilia,RE,"(46.1302898830005, 8.544640065000465)",44.6994444444,10.6327777778,228.029680442 km
513,IT001E04599376,42124,VIA TROMBA  36/A,09336350153,Gesta S.p.A.,Reggio Emilia,RE,"(46.1302898830005, 8.544640065000465)",44.6994444444,10.6327777778,228.029680442 km
514,IT001E04638296,42124,VIA FERRI  73,09336350153,Gesta S.p.A.,Reggio Emilia,RE,"(46.1302898830005, 8.544640065000465)",44.6994444444,10.6327777778,228.029680442 km
515,IT001E04638312,42124,VIA RONCHI  11,09336350153,Gesta S.p.A.,Reggio Emilia,RE,"(46.1302898830005, 8.544640065000465)",44.6994444444,10.6327777778,228.029680442 km
516,IT001E04599173,42124,VIA KENNEDY  12P,09336350153,Gesta S.p.A.,Reggio Emilia,RE,"(46.1302898830005, 8.544640065000465)",44.6994444444,10.6327777778,228.029680442 km
517,IT001E04599257,42121,PIAZZALE MARCONI G. 11,05041761007,Fast Service Italia S.p.A.,Reggio Emilia,RE,"(46.1302898830005, 8.544640065000465)",44.6994444444,10.6327777778,228.029680442 km
518,IT001E04599007,42124,VIA GOZZI 10/B,09336350153,Gesta S.p.A.,Reggio Emilia,RE,"(46.1302898830005, 8.544640065000465)",44.6994444444,10.6327777778,228.029680442 km
519,IT001E04638294,42124,VIA VERTOIBA 37/A,09336350153,Gesta S.p.A.,Reggio Emilia,RE,"(44.7067653, 10.6782836)",44.7067653,10.6782836,3.69709039475 km
520,IT001E04599452,42124,VIA CASALOFFIA  2,09336350153,Gesta S.p.A.,Reggio Emilia,RE,"(44.7479629, 10.5481963)",44.7479629,10.5481963,8.60075597886 km
521,IT001E48635920,42124,VIA TURRI  63,00310180351,Coopservice S.c.p.a.,Reggio Emilia,RE,"(44.6943053, 10.6515347)",44.6943053,10.6515347,1.59261607739 km
522,IT001E04599285,42124,VIA FERRI  75/A,09336350153,Gesta S.p.A.,Reggio Emilia,RE,"(44.7539472, 10.6177245)",44.7539472,10.6177245,6.17298239308 km
523,IT001E04599496,42124,VIA GRIMALDI A.  22/A,09336350153,Gesta S.p.A.,Reggio Emilia,RE,"(44.6894129, 10.5545113)",44.6894129,10.5545113,6.30313726297 km
524,IT001E04638326,42124,VIA MANZOTTI  22/A,09336350153,Gesta S.p.A.,Reggio Emilia,RE,"(44.6594851, 10.7044667)",44.6594851,10.7044667,7.21279756096 km
525,IT001E04599065,42124,VIA CAMURRI QUARTO  2,09336350153,Gesta S.p.A.,Reggio Emilia,RE,"(44.71195729999999, 10.5912628)",44.7119573,10.5912628,3.57181335758 km
526,IT001E04638281,42124,VIA MARSILIO DA PADOVA 3/1,09336350153,Gesta S.p.A.,Reggio Emilia,RE,"(44.7195778, 10.6331275)",44.7195778,10.6331275,2.23751294088 km
527,IT001E04599380,42124,VIA BOLOGNA  24,09336350153,Gesta S.p.A.,Reggio Emilia,RE,"(44.6574695, 10.6156063)",44.6574695,10.6156063,4.85911802864 km
528,IT001E04599296,42124,VIA NOBEL 7A,09336350153,Gesta S.p.A.,Reggio Emilia,RE,"(44.7197027, 10.556776)",44.7197027,10.556776,6.42968513355 km
529,IT001E04638279,42124,VIA FERRARONI  20/A,09336350153,Gesta S.p.A.,Reggio Emilia,RE,"(46.1302898830005, 8.544640065000465)",44.6994444444,10.6327777778,228.029680442 km
530,IT001E49532273,42124,VIA KEPLERO  SNC,05849840151,RIALTO S.r.l.,Reggio Emilia,RE,"(44.703787324268, 10.5959017360325)",44.7037873243,10.595901736,2.96218857467 km
531,IT001E04599226,42124,VIA AERONAUTICA  6,09336350153,Gesta S.p.A.,Reggio Emilia,RE,"(46.1302898830005, 8.544640065000465)",44.6994444444,10.6327777778,228.029680442 km
532,IT001E48064687,42124,VIA NAPOLI  28,09336350153,Gesta S.p.A.,Reggio Emilia,RE,"(46.1302898830005, 8.544640065000465)",44.6994444444,10.6327777778,228.029680442 km
533,IT001E49743019,42124,VIA RAVï¿½ / VIA VENERI,09336350153,Gesta S.p.A.,Reggio Emilia,RE,,44.6994444444,10.6327777778,
534,IT001E04599315,42124,VIA BERTOCCHI  8/A,09336350153,Gesta S.p.A.,Reggio Emilia,RE,"(46.1302898830005, 8.544640065000465)",44.6994444444,10.6327777778,228.029680442 km
535,IT001E04598869,42124,VIA CASCINO 8A,09336350153,Gesta S.p.A.,Reggio Emilia,RE,"(46.1302898830005, 8.544640065000465)",44.6994444444,10.6327777778,228.029680442 km
536,IT001E48121626,42124,VIA DIMITROV,09336350153,Gesta S.p.A.,Reggio Emilia,RE,"(44.6785273201294, 10.6084217380842)",44.6785273201,10.6084217381,3.02172123873 km
537,IT001E48110525,42124,VIA PLAUTO,09336350153,Gesta S.p.A.,Reggio Emilia,RE,"(44.7127773257403, 10.583271733964)",44.7127773257,10.583271734,4.19374436731 km
538,IT001E04599279,42124,VIA BETTI UGO  21A,09336350153,Gesta S.p.A.,Reggio Emilia,RE,"(46.1302898830005, 8.544640065000465)",44.6994444444,10.6327777778,228.029680442 km
539,IT001E04598865,42124,VIA ROMA  38,09336350153,Gesta S.p.A.,Reggio Emilia,RE,"(46.1302898830005, 8.544640065000465)",44.6994444444,10.6327777778,228.029680442 km
540,IT001E04638246,42124,CAPOL.FLUOR.DERIV. ENEL,09336350153,Gesta S.p.A.,Reggio Emilia,RE,,44.6994444444,10.6327777778,
541,IT001E04599328,42124,VIA FRANK  2/A,09336350153,Gesta S.p.A.,Reggio Emilia,RE,"(46.1302898830005, 8.544640065000465)",44.6994444444,10.6327777778,228.029680442 km
542,IT001E04599258,42124,VIA MARRO  1,09336350153,Gesta S.p.A.,Reggio Emilia,RE,"(46.1302898830005, 8.544640065000465)",44.6994444444,10.6327777778,228.029680442 km
543,IT001E04599360,42124,VIA MADONNA DI CORTICELLA  1/G,09336350153,Gesta S.p.A.,Reggio Emilia,RE,"(46.1302898830005, 8.544640065000465)",44.6994444444,10.6327777778,228.029680442 km
544,IT001E04599501,42124,VIA S. ANTONIO PADOVA  7/A,09336350153,Gesta S.p.A.,Reggio Emilia,RE,"(46.1302898830005, 8.544640065000465)",44.6994444444,10.6327777778,228.029680442 km
545,IT001E04599378,42124,VIA VALVERDE 2P,09336350153,Gesta S.p.A.,Reggio Emilia,RE,"(44.66563, 10.72573)",44.66563,10.72573,8.27207300739 km
546,IT001E04599093,42124,VIA ZAMBONINI  5/P,09336350153,Gesta S.p.A.,Reggio Emilia,RE,"(44.7083841, 10.5985534)",44.7083841,10.5985534,2.88854941125 km
547,IT001E04599405,42124,VIA QUASIMODO  1/P,09336350153,Gesta S.p.A.,Reggio Emilia,RE,"(44.7545, 10.595862)",44.7545,10.595862,6.78115663434 km
548,IT001E04598877,42124,VIA PALESTRO 19A,09336350153,Gesta S.p.A.,Reggio Emilia,RE,"(44.6902577, 10.6325491)",44.6902577,10.6325491,1.02104535624 km
549,IT001E04599414,42124,VIA TIRABASSI 7/5,09336350153,Gesta S.p.A.,Reggio Emilia,RE,"(44.6715031, 10.5654277)",44.6715031,10.5654277,6.17651052965 km
550,IT001E04599020,42124,VIA MERCADANTE  1/A,09336350153,Gesta S.p.A.,Reggio Emilia,RE,"(44.6926052, 10.6113607)",44.6926052,10.6113607,1.85994141835 km
551,IT001E04598951,42124,VIA PASSO BUOLE  72/A,09336350153,Gesta S.p.A.,Reggio Emilia,RE,"(44.682105, 10.6348719)",44.682105,10.6348719,1.9339958341 km
552,IT001E04599316,42124,VIA BIGI  9/A,09336350153,Gesta S.p.A.,Reggio Emilia,RE,"(44.7479486, 10.6935594)",44.7479486,10.6935594,7.22781469218 km
553,IT001E04599252,42124,VIA GRAMSCI  94/B,09336350153,Gesta S.p.A.,Reggio Emilia,RE,"(44.72132999999999, 10.64734)",44.72133,10.64734,2.69193453506 km
554,IT001E04599240,42124,VIA DOBERDï¿½  2/1,09336350153,Gesta S.p.A.,Reggio Emilia,RE,"(46.1302898830005, 8.544640065000465)",44.6994444444,10.6327777778,228.029680442 km
555,IT001E04599032,42124,VIA QUARTO DEI MILLE  8,09336350153,Gesta S.p.A.,Reggio Emilia,RE,"(44.692845, 10.6188198)",44.692845,10.6188198,1.32733795205 km
556,IT001E04598987,42124,VIA AUSTRIA  21/A,09336350153,Gesta S.p.A.,Reggio Emilia,RE,"(44.68456519999999, 10.6066606)",44.6845652,10.6066606,2.64951453946 km
557,IT001E04599200,42124,VIA RINALDI  22,09336350153,Gesta S.p.A.,Reggio Emilia,RE,"(44.7208818, 10.6129353)",44.7208818,10.6129353,2.85438376967 km
558,IT001E49613436,42124,VIA CASINAZZO  1/1,09336350153,Gesta S.p.A.,Reggio Emilia,RE,"(44.6734047, 10.5347601)",44.6734047,10.5347601,8.29173363215 km
559,IT001E04599288,42124,VIA GALEOTTI  30/P,09336350153,Gesta S.p.A.,Reggio Emilia,RE,"(44.7423309, 10.6182582)",44.7423309,10.6182582,4.90268588259 km
560,IT001E04638343,42124,VIA MADONNA DI CORTICELLA  13/A,09336350153,Gesta S.p.A.,Reggio Emilia,RE,"(44.6787061, 10.6487963)",44.6787061,10.6487963,2.63124658698 km
561,IT001E49453803,42123,VIA SAN MARCO SNC,09336350153,Gesta S.p.A.,Reggio Emilia,RE,"(44.69714399999999, 10.642436)",44.697144,10.642436,0.807063113512 km
562,IT001E04599159,42124,VIA ANITA GARIBALDI  2/A,09336350153,Gesta S.p.A.,Reggio Emilia,RE,"(44.7190871, 10.5744808)",44.7190871,10.5744808,5.10944823609 km
563,IT001E04638390,42124,VIA CASTELLO  7/A,09336350153,Gesta S.p.A.,Reggio Emilia,RE,"(44.69851, 10.6293529)",44.69851,10.6293529,0.290634810888 km
564,IT001E48050239,42124,VIA GABELLI  43,09336350153,Gesta S.p.A.,Reggio Emilia,RE,"(44.6755315, 10.6551116)",44.6755315,10.6551116,3.19313751678 km
565,IT001E04599245,42124,VIA EMILIA OSPIZIO 66/1,09336350153,Gesta S.p.A.,Reggio Emilia,RE,"(44.69182, 10.65065)",44.69182,10.65065,1.65065182061 km
566,IT001E04638414,42124,VIA TEGGI  68/A,09336350153,Gesta S.p.A.,Reggio Emilia,RE,"(44.69111240000001, 10.558483)",44.6911124,10.558483,5.96121980221 km
567,IT001E54763596,42124,VIA RIV. D OTTOBRE  16,00310180351,Coopservice S.c.p.a.,Reggio Emilia,RE,"(46.1302898830005, 8.544640065000465)",44.6994444444,10.6327777778,228.029680442 km
568,IT001E04599241,42124,VIA DOBERDï¿½  2,09336350153,Gesta S.p.A.,Reggio Emilia,RE,"(46.1302898830005, 8.544640065000465)",44.6994444444,10.6327777778,228.029680442 km
569,IT001E04599136,42124,VIA COVENTRY 1/A,09336350153,Gesta S.p.A.,Reggio Emilia,RE,"(44.759771, 10.4447374)",44.6994444444,10.6327777778,16.3349725053 km
570,IT001E04638371,42124,VIA DON LEURATTI  8X,09336350153,Gesta S.p.A.,Reggio Emilia,RE,"(44.7364581, 10.6601859)",44.7364581,10.6601859,4.65126410995 km
571,IT001E04599299,42124,VIA SALIMBENE DA PARMA 5,09336350153,Gesta S.p.A.,Reggio Emilia,RE,"(44.7472642, 10.6240336)",44.7472642,10.6240336,5.3590012728 km
572,IT001E04599323,42124,VIA ROSSELLI BREN 1P,09336350153,Gesta S.p.A.,Reggio Emilia,RE,"(46.1302898830005, 8.544640065000465)",44.6994444444,10.6327777778,228.029680442 km
573,IT001E54993532,42123,VIA  GUITTONE D AREZZO,03846980286,PITTAROSSO  S.p.A.,Reggio Emilia,RE,"(44.6736426, 10.6017293)",44.6736426,10.6017293,3.77882538839 km
574,IT001E48043100,42124,VIA ADUA (C/O NUOVO CENTRO COMMERCIALE),09336350153,Gesta S.p.A.,Reggio Emilia,RE,,44.6994444444,10.6327777778,
575,IT001E04638274,42124,VIA BONINSEGNA  12/A,09336350153,Gesta S.p.A.,Reggio Emilia,RE,"(44.7123411, 10.6219753)",44.7123411,10.6219753,1.66937599842 km
576,IT001E04638278,42124,VIA FERRARONI  32/A,09336350153,Gesta S.p.A.,Reggio Emilia,RE,"(44.7313901, 10.5848729)",44.7313901,10.5848729,5.19717086309 km
577,IT001E49625857,42124,VIA VILLANA,09336350153,Gesta S.p.A.,Reggio Emilia,RE,"(44.7366596, 10.5718605)",44.7366596,10.5718605,6.35605292009 km
578,IT001E00044089,42124,VIA PREMUDA  25/A,09336350153,Gesta S.p.A.,Reggio Emilia,RE,"(44.6957238, 10.6116876)",44.6957238,10.6116876,1.72199173658 km
579,IT001E04638360,42124,VIA SASSI  4/A,09336350153,Gesta S.p.A.,Reggio Emilia,RE,"(44.6512435, 10.6211065)",44.6512435,10.6211065,5.43570658088 km
580,IT001E04638263,42124,VIA B. DA SASSOFERRATO  32/A,09336350153,Gesta S.p.A.,Reggio Emilia,RE,"(44.6801444, 10.5914476)",44.6801444,10.5914476,3.91585808615 km
581,IT001E48001642,42124,VIA MANGANELLI,09336350153,Gesta S.p.A.,Reggio Emilia,RE,"(44.7277085, 10.5303217)",44.7277085,10.5303217,8.70487635842 km
582,IT001E04599050,42124,VIA BERETTI 22/A,09336350153,Gesta S.p.A.,Reggio Emilia,RE,"(44.69353659999999, 10.6209387)",44.6935366,10.6209387,1.14524429781 km
583,IT001E04599476,42124,VIA CASTELLO MOTTI  1/A,09336350153,Gesta S.p.A.,Reggio Emilia,RE,"(44.713987, 10.6909572)",44.713987,10.6909572,4.88562344076 km
584,IT001E04599095,42124,VIA ALLEGRI 12A,09336350153,Gesta S.p.A.,Reggio Emilia,RE,"(44.52779, 10.74765)",44.6994444444,10.6327777778,21.142176851 km
585,IT001E04598900,42124,VIA BAZZANI 19/A,09336350153,Gesta S.p.A.,Reggio Emilia,RE,"(44.6769005, 10.6423436)",44.6769005,10.6423436,2.61746525996 km
586,IT001E48064673,42124,VIA BORGHI  4 PX (PONTE TASSONE),09336350153,Gesta S.p.A.,Reggio Emilia,RE,"(40.061741790652206, -94.76472899244828)",44.6994444444,10.6327777778,8031.77297372 km
587,IT001E48137919,42122,CHIONSO 32B,02517580920,Wind Tre S.p.a.u.s.,Reggio Emilia,RE,"(44.7061377, 10.6543424)",44.7061377,10.6543424,1.86390681996 km
588,IT001E48126228,42124,VIA ASSEVERATI  65/A,09336350153,Gesta S.p.A.,Reggio Emilia,RE,"(44.693377, 10.7287632)",44.693377,10.7287632,7.63782412122 km
589,IT001E04638329,42124,VIA MANZOTTI  6/A,09336350153,Gesta S.p.A.,Reggio Emilia,RE,"(44.6627269, 10.7009305)",44.6627269,10.7009305,6.77087200433 km
590,IT001E04599324,42124,VIA W. SALTINI  8/A,09336350153,Gesta S.p.A.,Reggio Emilia,RE,"(44.6900047, 10.6149772)",44.6900047,10.6149772,1.758176643 km
591,IT001E00112672,42124,VIA XX SETTEMBRE  1/C,09336350153,Gesta S.p.A.,Reggio Emilia,RE,"(44.708431, 10.6241035)",44.708431,10.6241035,1.21238294799 km
592,IT001E04599465,42124,VIA VICO  37/B,09336350153,Gesta S.p.A.,Reggio Emilia,RE,"(44.70391679999999, 10.6154661)",44.7039168,10.6154661,1.4592754825 km
593,IT001E48050062,42124,VIA MONTI  107,09336350153,Gesta S.p.A.,Reggio Emilia,RE,"(44.6676937, 10.6513007)",44.6676937,10.6513007,3.82171522677 km
594,IT001E04599195,42124,VIA PISTELLI  4/A,09336350153,Gesta S.p.A.,Reggio Emilia,RE,"(44.7093655, 10.6023098)",44.7093655,10.6023098,2.65440851647 km
595,IT001E04599022,42124,VIA MONTE PENNA  1/A,09336350153,Gesta S.p.A.,Reggio Emilia,RE,"(44.68708729999999, 10.617677)",44.6870873,10.617677,1.82165908797 km
596,IT001E04598907,42124,VIA CECATI  24/A,09336350153,Gesta S.p.A.,Reggio Emilia,RE,"(44.6894363, 10.6235472)",44.6894363,10.6235472,1.33125233847 km
597,IT001E04598979,42124,CORSO GARIBALDI  16/A,09336350153,Gesta S.p.A.,Reggio Emilia,RE,"(44.696051, 10.6277628)",44.696051,10.6277628,0.547906121011 km
598,IT001E51177420,42121,VIA EM.S.PIETRO  14,04850790967,Gruppo Coin S.p.A.,Reggio Emilia,RE,"(44.6973958, 10.6343802)",44.6973958,10.6343802,0.260688830435 km
599,IT001E04598861,42124,VIA ABBADESSA  4,09336350153,Gesta S.p.A.,Reggio Emilia,RE,"(44.6974771, 10.6350455)",44.6974771,10.6350455,0.283022510896 km
600,IT001E48342033,42124,VIA GONZAGA  124 PX,09336350153,Gesta S.p.A.,Reggio Emilia,RE,"(46.1302898830005, 8.544640065000465)",44.6994444444,10.6327777778,228.029680442 km
601,IT001E04599047,42124,VIA ALEARDI  1/D,09336350153,Gesta S.p.A.,Reggio Emilia,RE,"(44.6948777, 10.6018012)",44.6948777,10.6018012,2.50713520183 km
602,IT001E54731208,42124,VIA CAVAZZOLI 4/A,09336350153,Gesta S.p.A.,Reggio Emilia,RE,"(44.6613561, 10.5906159)",44.6613561,10.5906159,5.39340677143 km
603,IT001E04599325,42124,VIA CASARTELLI F. N. 10PX,09336350153,Gesta S.p.A.,Reggio Emilia,RE,"(44.631001, 10.6904107)",44.631001,10.6904107,8.8734483789 km
604,IT001E04599150,42124,VIA FERRARONI  19P,09336350153,Gesta S.p.A.,Reggio Emilia,RE,"(44.7208824, 10.5894034)",44.7208824,10.5894034,4.18202060895 km
605,IT001E54780350,42124,VIA CUGINI  16/A,09336350153,Gesta S.p.A.,Reggio Emilia,RE,"(44.6768214, 10.6459576)",44.6768214,10.6459576,2.7224673489 km
606,IT001E04599443,42124,VIA REGGIOLO  9/A,09336350153,Gesta S.p.A.,Reggio Emilia,RE,"(44.7460876, 10.5269883)",44.7460876,10.5269883,9.85456517005 km
607,IT001E00044129,42124,V.LE ISONZO 9/B,09336350153,Gesta S.p.A.,Reggio Emilia,RE,"(44.7025526, 10.6250519)",44.7025526,10.6250519,0.703019044704 km
608,IT001E04599389,42124,VIA AMSTRONG 1/P,09336350153,Gesta S.p.A.,Reggio Emilia,RE,"(44.6525469, 10.6432578)",44.6525469,10.6432578,5.27734185489 km
609,IT001E00044133,42124,GALLERIA CAVOUR  4/B,09336350153,Gesta S.p.A.,Reggio Emilia,RE,"(44.7000211, 10.6302527)",44.7000211,10.6302527,0.210140539689 km
610,IT001E04599149,42124,VIA FERRARONI  11/A,09336350153,Gesta S.p.A.,Reggio Emilia,RE,"(44.7189545, 10.5887434)",44.7189545,10.5887434,4.10817306326 km
611,IT001E04599134,42124,VIA COLLETTA 10/A,09336350153,Gesta S.p.A.,Reggio Emilia,RE,"(44.7279365, 10.6126292)",44.7279365,10.6126292,3.54596362185 km
612,IT001E04599199,42124,VIA RICASOLI  8/A,09336350153,Gesta S.p.A.,Reggio Emilia,RE,"(44.7045713, 10.6183598)",44.7045713,10.6183598,1.27684250684 km
613,IT001E04638298,42124,VIA FERRI  64,09336350153,Gesta S.p.A.,Reggio Emilia,RE,"(44.75220059999999, 10.6173416)",44.7522006,10.6173416,5.98878584411 km
614,IT001E04599131,42124,VIA CERVI F.LLI  52/A,09336350153,Gesta S.p.A.,Reggio Emilia,RE,"(44.7075743, 10.6050728)",44.7075743,10.6050728,2.37428701941 km
615,IT001E04472970,42124,PIAZZALE EUROPA 1A,02517580920,Wind Tre S.p.a.u.s.,Reggio Emilia,RE,"(44.69912900000001, 10.6434385)",44.699129,10.6434385,0.845676181437 km
616,IT001E49544823,42124,VIA AMENDOLA (PARCHEGGIO SAN LAZZARO),09336350153,Gesta S.p.A.,Reggio Emilia,RE,,44.6994444444,10.6327777778,
617,IT001E04599224,42124,VIA ADUA 53/A,09336350153,Gesta S.p.A.,Reggio Emilia,RE,"(44.7041773, 10.6498152)",44.7041773,10.6498152,1.44910874203 km
618,IT001E00044066,42124,VIA SAN GIUSEPPE  2/A,09336350153,Gesta S.p.A.,Reggio Emilia,RE,"(44.698433, 10.6300137)",44.698433,10.6300137,0.246227529242 km
619,IT001E48001633,42124,VIA GOGOL NIKOLAJ,09336350153,Gesta S.p.A.,Reggio Emilia,RE,"(44.6739317, 10.6984238)",44.6739317,10.6984238,5.9262707824 km
620,IT001E04638404,42124,VIA FREDDI  19/A,09336350153,Gesta S.p.A.,Reggio Emilia,RE,"(44.7024257, 10.6491391)",44.7024257,10.6491391,1.3383831131 km
621,IT001E51182259,42122,VIA FRANK SNC,09336350153,Gesta S.p.A.,Reggio Emilia,RE,"(44.6419781, 10.6732136)",44.6419781,10.6732136,7.14575854555 km
622,IT001E54549194,42124,VIA PERVILLI  12D (MAGAZZINO),09336350153,Gesta S.p.A.,Reggio Emilia,RE,,44.6994444444,10.6327777778,
623,IT001E04598840,42124,VIA MATTEOTTI  7,09336350153,Gesta S.p.A.,Reggio Emilia,RE,"(44.6929168, 10.6402102)",44.6929168,10.6402102,0.934474823345 km
624,IT001E49603105,42124,VIA TEGGI 44 CODEMONDO,09336350153,Gesta S.p.A.,Reggio Emilia,RE,"(44.6921156, 10.5644131)",44.6921156,10.5644131,5.47964699846 km
